poi_id,osm_id,name,lat,lon,amenity,tourism,railway,public_transport,aeroway,shop,leisure,office,building,addr_street,addr_housenumber,addr_city,all_tags_json
1,,Rosslyn,38.8967784,-77.0724777,,,,,,,,,,,,,"{""ele"": ""26"", ""gnis:feature_id"": ""1499990"", ""import_uuid"": ""bb7269ee-502a-5391-8056-e3ce0e66489c"", ""name"": ""Rosslyn"", ""place"": ""suburb"", ""wikidata"": ""Q7369880"", ""wikipedia"": ""en:Rosslyn, Virginia""}"
2,,Sunoco,38.8964189,-77.0726392,fuel,,,,,,,,,Fort Myer Drive,1830,Arlington,"{""addr:city"": ""Arlington"", ""addr:country"": ""US"", ""addr:housenumber"": ""1830"", ""addr:postcode"": ""22209"", ""addr:state"": ""VA"", ""addr:street"": ""Fort Myer Drive"", ""amenity"": ""fuel"", ""brand"": ""Sunoco"", ""brand:wikidata"": ""Q1423218"", ""check_date"": ""2024-09-27"", ""level"": ""0"", ""name"": ""Sunoco"", ""official_name"": ""Sunoco #0794835900"", ""opening_hours"": ""Tu 06:00-23:59"", ""phone"": ""+1 301-972-4116"", ""ref"": ""0794835900"", ""website"": ""https://www.sunoco.com/locations/store/1830-fort-myer-dr-arlington-va-0794835900""}"
3,,,38.8954753,-77.0665191,bicycle_parking,,,,,,,,,,,,"{""amenity"": ""bicycle_parking"", ""covered"": ""no""}"
4,,,38.896589,-77.0649924,,information,,,,,,,,,,,"{""board_type"": ""history"", ""check_date"": ""2022-03-05"", ""information"": ""board"", ""tourism"": ""information""}"
5,,115,38.8899817,-77.0695131,,,,,,,,,,,,,"{""ele"": ""32.329834"", ""man_made"": ""survey_point"", ""name"": ""115"", ""wpt_description"": ""20-SEP-09 6:45:11PM""}"
6,,083,38.8881827,-77.0694526,,,,,,,,,,,,,"{""ele"": ""33.771729"", ""name"": ""083"", ""wpt_description"": ""20-SEP-09 3:45:57PM""}"
7,,080,38.8881827,-77.0695384,,,,,,,,,,,,,"{""ele"": ""28.724976"", ""name"": ""080"", ""wpt_description"": ""20-SEP-09 3:42:59PM""}"
8,,Sphinx,38.8882644,-77.0692975,,artwork,,,,,,,,,,,"{""artwork_type"": ""sculpture"", ""name"": ""Sphinx"", ""tourism"": ""artwork""}"
9,,Sphinx,38.8881508,-77.0692969,,artwork,,,,,,,,,,,"{""artwork_type"": ""sculpture"", ""name"": ""Sphinx"", ""tourism"": ""artwork""}"
10,,,38.8898007,-77.0705772,drinking_water,,,,,,,,,,,,"{""amenity"": ""drinking_water"", ""drinking_water:seasonal"": ""yes"", ""ele"": ""35.69""}"
11,,,38.891117,-77.0705184,drinking_water,,,,,,,,,,,,"{""amenity"": ""drinking_water"", ""drinking_water:seasonal"": ""yes"", ""ele"": ""35.93"", ""fountain"": ""bubbler""}"
12,,,38.891509,-77.0702628,,,ventilation_shaft,,,,,,,,,,"{""railway"": ""ventilation_shaft""}"
13,,Wright Gate,38.8876483,-77.0719649,,,,,,,,,,,,,"{""barrier"": ""gate"", ""name"": ""Wright Gate"", ""opening_hours"": ""Mo-Su 05:00-23:00"", ""website"": ""https://home.army.mil/jbmhh/my-fort/all-services/access-gate-info""}"
14,,,38.8861819,-77.069277,waste_disposal,,,,,,,,,,,,"{""amenity"": ""waste_disposal"", ""ele"": ""14.79""}"
15,,,38.8854937,-77.0701267,waste_disposal,,,,,,,,,,,,"{""amenity"": ""waste_disposal"", ""ele"": ""14.79""}"
16,,,38.8871373,-77.0668394,waste_disposal,,,,,,,,,,,,"{""amenity"": ""waste_disposal"", ""ele"": ""15.99""}"
17,,,38.8871573,-77.066848,drinking_water,,,,,,,,,,,,"{""amenity"": ""drinking_water"", ""ele"": ""15.75"", ""wpt_description"": ""29-SEP-09 3:56:41PM""}"
18,,009,38.8879039,-77.066951,,,,,,,,,,,,,"{""ele"": ""17.4296"", ""leaf_type"": ""broadleaved"", ""name"": ""009"", ""natural"": ""tree""}"
19,,Rosslyn Metro Bay C,38.8958861,-77.0716196,,,,platform,,,,,,,,,"{""bus"": ""yes"", ""highway"": ""bus_stop"", ""local_ref"": ""C"", ""name"": ""Rosslyn Metro Bay C"", ""network"": ""WMATA Metrobus"", ""network:wikidata"": ""Q6824810"", ""operator"": ""Washington Metropolitan Area Transit Authority"", ""operator:short"": ""WMATA"", ""operator:wikidata"": ""Q7972051"", ""public_transport"": ""platform"", ""ref:wmata"": ""6001346""}"
20,,,38.8971295,-77.0696351,parking,,,,,,,,,,,,"{""amenity"": ""parking""}"
21,,Mele Bistro,38.8942247,-77.0788799,restaurant,,,,,,,,,Wilson Boulevard,1723,,"{""addr:housenumber"": ""1723"", ""addr:postcode"": ""22209"", ""addr:state"": ""VA"", ""addr:street"": ""Wilson Boulevard"", ""amenity"": ""restaurant"", ""cuisine"": ""italian"", ""name"": ""Mele Bistro"", ""opening_hours"": ""Mo-Su 16:30-22:00"", ""phone"": ""+1 703-522-5222"", ""website"": ""https://www.melebistro.com/""}"
22,,Eclairons,38.894064,-77.079181,cafe,,,,,,,,,Wilson Boulevard,1737,Arlington,"{""addr:city"": ""Arlington"", ""addr:housenumber"": ""1737"", ""addr:postcode"": ""22209"", ""addr:state"": ""VA"", ""addr:street"": ""Wilson Boulevard"", ""amenity"": ""cafe"", ""name"": ""Eclairons"", ""opening_hours"": ""Mo-Th 07:30-19:00; Fr 07:30-20:00; Sa 08:00-20:00; Su 08:00-19:00"", ""phone"": ""+1-571-527-0596"", ""website"": ""https://www.eclairons.com/""}"
23,,Pho 75,38.8942539,-77.0787995,restaurant,,,,,,,,,Wilson Boulevard,1721,,"{""addr:housenumber"": ""1721"", ""addr:state"": ""VA"", ""addr:street"": ""Wilson Boulevard"", ""amenity"": ""restaurant"", ""cuisine"": ""vietnamese"", ""delivery"": ""no"", ""description"": ""authentic Vietnamese beef noodle soup"", ""name"": ""Pho 75"", ""opening_hours"": ""Mo-Su 09:00-20:00"", ""phone"": ""+1 703-525-7355"", ""takeaway"": ""yes""}"
24,,,38.8949592,-77.0746008,parking,,,,,,,,,,,,"{""amenity"": ""parking""}"
25,,Rosslyn Spectrum,38.8950706,-77.0691333,theatre,,,,,,,,,,,,"{""amenity"": ""theatre"", ""name"": ""Rosslyn Spectrum"", ""wikidata"": ""Q43301267""}"
26,,,38.8947272,-77.0698466,parking,,,,,,,,,,,,"{""amenity"": ""parking""}"
27,,For Five Coffee Roasters,38.8960729,-77.0705613,cafe,,,,,,,,,North Lynn Street,1735,,"{""addr:housenumber"": ""1735"", ""addr:postcode"": ""22209"", ""addr:street"": ""North Lynn Street"", ""amenity"": ""cafe"", ""cuisine"": ""coffee_shop"", ""name"": ""For Five Coffee Roasters"", ""opening_hours"": ""Mo-Su 07:00-19:00"", ""takeaway"": ""yes"", ""website"": ""https://www.forfivecoffee.com/location/for-five-coffee-rosslyn/""}"
28,,Wells Fargo,38.8945903,-77.0724548,bank,,,,,,,,,,,,"{""amenity"": ""bank"", ""atm"": ""yes"", ""brand"": ""Wells Fargo"", ""brand:wikidata"": ""Q744149"", ""name"": ""Wells Fargo""}"
29,,Manhattan Cafe & Catering,38.893692,-77.071404,cafe,,,,,,,,,Fort Myer Drive,1655,Arlington,"{""addr:city"": ""Arlington"", ""addr:housenumber"": ""1655"", ""addr:postcode"": ""22209"", ""addr:state"": ""VA"", ""addr:street"": ""Fort Myer Drive"", ""amenity"": ""cafe"", ""name"": ""Manhattan Cafe & Catering"", ""phone"": ""+1-703-527-0047""}"
30,,,38.8935541,-77.071592,,artwork,,,,,,,,,,,"{""artwork_type"": ""sculpture"", ""tourism"": ""artwork""}"
31,,,38.8934554,-77.0714692,,artwork,,,,,,,,,,,"{""artwork_type"": ""sculpture"", ""tourism"": ""artwork""}"
32,,,38.8934611,-77.0714135,,artwork,,,,,,,,,,,"{""artwork_type"": ""sculpture"", ""tourism"": ""artwork""}"
33,,Propark America,38.8952264,-77.0729968,parking,,,,,,,,,,,,"{""amenity"": ""parking"", ""description"": ""1st hour -$6 2nd hour -$11 Each extra hour -$2 Max rate - $23 per 24 hour"", ""name"": ""Propark America"", ""website"": ""http://propark.com""}"
34,,Coffee Express,38.8946085,-77.07258,cafe,,,,,,,,,,,,"{""amenity"": ""cafe"", ""name"": ""Coffee Express""}"
35,,Rhodeside Green Park,38.892595,-77.0795802,,information,,,,,,,,,,,"{""board_type"": ""welcome_sign"", ""information"": ""board"", ""name"": ""Rhodeside Green Park"", ""sign"": ""Park Name"", ""tourism"": ""information""}"
36,,"The Family: David, Haggit, and Adoniyya",38.8937809,-77.0729926,,artwork,,,,,,,,,,,"{""artist_name"": ""Boaz Vaadia"", ""artwork_title"": ""The Family: David, Haggit, and Adonayya"", ""artwork_type"": ""sculpture"", ""material"": ""stone"", ""name"": ""The Family: David, Haggit, and Adoniyya"", ""tourism"": ""artwork""}"
37,,,38.8941639,-77.069626,bicycle_parking,,,,,,,,,,,,"{""amenity"": ""bicycle_parking""}"
38,,,38.8937645,-77.0787185,,artwork,,,,,,,,,,,"{""artist_name"": ""John Dreyfuss"", ""artwork_title"": ""Helix"", ""tourism"": ""artwork""}"
39,,,38.8930886,-77.0715834,,artwork,,,,,,,,,,,"{""artwork_type"": ""sculpture"", ""tourism"": ""artwork""}"
40,,,38.8985812,-77.0732971,bicycle_parking,,,,,,,,,,,,"{""amenity"": ""bicycle_parking""}"
41,,,38.8989791,-77.073426,bicycle_parking,,,,,,,,,,,,"{""amenity"": ""bicycle_parking""}"
42,,,38.8988593,-77.0734067,bicycle_parking,,,,,,,,,,,,"{""amenity"": ""bicycle_parking""}"
43,,PNC Bank,38.8965291,-77.0705998,bank,,,,,,,,,North Lynn Street,1801,,"{""addr:housenumber"": ""1801"", ""addr:state"": ""VA"", ""addr:street"": ""North Lynn Street"", ""amenity"": ""bank"", ""atm"": ""yes"", ""brand"": ""PNC Bank"", ""brand:wikidata"": ""Q38928"", ""name"": ""PNC Bank""}"
44,,,38.8959447,-77.0705565,,,,,,vacant,,,,North Lynn Street,1735,,"{""addr:housenumber"": ""1735"", ""addr:state"": ""VA"", ""addr:street"": ""North Lynn Street"", ""shop"": ""vacant""}"
45,,International Place,38.8961821,-77.0705661,parking,,,,,,,,,,,,"{""amenity"": ""parking"", ""name"": ""International Place""}"
46,,News & Necessities,38.8956044,-77.0705784,,,,,,newsagent,,,,,,,"{""name"": ""News & Necessities"", ""shop"": ""newsagent""}"
47,,Chipotle,38.8953405,-77.0705227,fast_food,,,,,,,,,North Lynn Street,1735,Rosslyn,"{""addr:city"": ""Rosslyn"", ""addr:country"": ""US"", ""addr:housenumber"": ""1735"", ""addr:postcode"": ""22209"", ""addr:state"": ""VA"", ""addr:street"": ""North Lynn Street"", ""amenity"": ""fast_food"", ""brand"": ""Chipotle"", ""brand:wikidata"": ""Q465751"", ""check_date"": ""2023-06-15"", ""cuisine"": ""mexican"", ""diet:vegan"": ""yes"", ""diet:vegetarian"": ""yes"", ""name"": ""Chipotle"", ""official_name"": ""Chipotle Mexican Grill"", ""opening_hours"": ""10:00-22:00"", ""phone"": ""+1 703-294-6669"", ""ref"": ""va_rosslyn_1735-n-lynn-st"", ""takeaway"": ""yes"", ""website"": ""https://locations.chipotle.com/va/rosslyn/1735-n-lynn-st""}"
48,,,38.8961466,-77.0713864,,,subway_entrance,,,,,,,,,,"{""highway"": ""elevator"", ""level"": ""-1;0"", ""level:ref"": ""T;*S"", ""operator"": ""WMATA"", ""railway"": ""subway_entrance"", ""wheelchair"": ""yes""}"
49,,The Commuter Store,38.8962086,-77.071765,,,,,,kiosk,,,,,,,"{""name"": ""The Commuter Store"", ""shop"": ""kiosk"", ""wheelchair"": ""yes""}"
50,,Freedom Park Viewpoint,38.8946103,-77.0694706,,viewpoint,,,,,,,,,,,"{""name"": ""Freedom Park Viewpoint"", ""tourism"": ""viewpoint""}"
51,,Miracles,38.8949097,-77.0740569,,,,,,hairdresser,,,,Wilson Boulevard,1501,Arlington,"{""addr:city"": ""Arlington"", ""addr:housenumber"": ""1501"", ""addr:postcode"": ""22209"", ""addr:state"": ""VA"", ""addr:street"": ""Wilson Boulevard"", ""name"": ""Miracles"", ""shop"": ""hairdresser"", ""website"": ""https://www.miraclesinthecity.com/""}"
52,,Clarendon Blvd at N Ode St,38.8936768,-77.0752026,,,,platform,,,,,,,,,"{""bus"": ""yes"", ""highway"": ""bus_stop"", ""name"": ""Clarendon Blvd at N Ode St"", ""network"": ""Arlington Transit;WMATA Metrobus"", ""network:short"": ""ART"", ""network:wikidata"": ""Q4792406;Q6824810"", ""not:network:wikidata"": ""Q4750893"", ""operator"": ""Washington Metropolitan Area Transit Authority"", ""operator:short"": ""WMATA"", ""operator:wikidata"": ""Q7972051"", ""public_transport"": ""platform"", ""ref"": ""6000688"", ""ref:art"": ""45010"", ""ref:wmata"": ""6000688"", ""website"": ""https://www.arlingtontransit.com/realtime/all/6000688""}"
53,,Rhodes & 14th,38.8900789,-77.0786725,,,,platform,,,,,,,,,"{""bus"": ""yes"", ""highway"": ""bus_stop"", ""name"": ""Rhodes & 14th"", ""public_transport"": ""platform"", ""source"": ""dcgis""}"
54,,River Place,38.8931638,-77.0710234,,,,platform,,,,,,,,,"{""bus"": ""yes"", ""highway"": ""bus_stop"", ""name"": ""River Place"", ""network"": ""GUTS"", ""public_transport"": ""platform"", ""source"": ""dcgis""}"
55,,,38.8946592,-77.0708933,,,switch,,,,,,,,,,"{""railway"": ""switch"", ""ref"": ""3""}"
56,,Rosslyn,38.8959791,-77.0709087,,,station,station,,,,,,North Moore Street,1850,Arlington,"{""addr:city"": ""Arlington"", ""addr:housenumber"": ""1850"", ""addr:postcode"": ""22209"", ""addr:state"": ""VA"", ""addr:street"": ""North Moore Street"", ""dc-gis:addr"": ""1850 N. MOORE STREET, ARLINGTON, VA"", ""dc-gis:dataset"": ""MetroStnFullPt"", ""dc-gis:gis_id"": ""mstn_060"", ""dc-gis:pubdate"": ""2007-04-05"", ""internet_access"": ""wlan"", ""internet_access:fee"": ""no"", ""internet_access:ssid"": ""Metro-Public"", ""level"": ""-3;-2"", ""name"": ""Rosslyn"", ""network"": ""Washington Metro"", ""network:wikidata"": ""Q171221"", ""operator"": ""Washington Metropolitan Area Transit Authority"", ""operator:short"": ""WMATA"", ""operator:wikidata"": ""Q7972051"", ""public_transport"": ""station"", ""railway"": ""station"", ""railway:ref"": ""C05"", ""station"": ""subway"", ""subway"": ""yes"", ""website"": ""https://www.wmata.com/rider-guide/stations/rosslyn.cfm"", ""wheelchair"": ""yes"", ""wikidata"": ""Q7369892"", ""wikipedia"": ""en:Rosslyn station""}"
57,,Henderson Hall Main Gate,38.8685868,-77.0729289,,,,,,,,,,,,,"{""access"": ""private"", ""barrier"": ""gate"", ""description"": ""Access for DoD ID Card holders and AIE pass holders only"", ""name"": ""Henderson Hall Main Gate"", ""opening_hours"": ""Mo-Su 05:00-19:00"", ""ref"": ""1""}"
58,,Annex Gate,38.8691077,-77.0709393,,,,,,,,,,,,,"{""access"": ""private"", ""barrier"": ""gate"", ""name"": ""Annex Gate""}"
59,,Wilson Blvd at N Kent St,38.8946067,-77.0695228,,,,platform,,,,,,,,,"{""bus"": ""yes"", ""highway"": ""bus_stop"", ""name"": ""Wilson Blvd at N Kent St"", ""public_transport"": ""platform""}"
60,,N Nash St at Wilson Blvd,38.8956412,-77.0730729,,,,platform,,,,,,,,,"{""bus"": ""yes"", ""highway"": ""bus_stop"", ""name"": ""N Nash St at Wilson Blvd"", ""network"": ""WMATA;ART"", ""operator"": ""WMATA;ART"", ""public_transport"": ""platform"", ""ref:wmata"": ""6000712"", ""website"": ""https://www.arlingtontransit.com/realtime/all/6000712""}"
61,,,38.8975444,-77.0705454,bicycle_parking,,,,,,,,,,,,"{""amenity"": ""bicycle_parking"", ""bicycle_parking"": ""stands"", ""check_date"": ""2023-01-28"", ""covered"": ""yes""}"
62,,,38.8972968,-77.0704708,parking,,,,,,,,,,,,"{""amenity"": ""parking""}"
63,,Loudoun County Commuter Bus,38.8967631,-77.0707507,,,,platform,,,,,,,,,"{""bus"": ""yes"", ""highway"": ""bus_stop"", ""name"": ""Loudoun County Commuter Bus"", ""public_transport"": ""platform""}"
64,,Wilson Florist,38.895545,-77.070566,,,,,,florist,,,,,,,"{""name"": ""Wilson Florist"", ""shop"": ""florist""}"
65,,Seven Cleaners,38.895416,-77.07056,,,,,,dry_cleaning,,,,North Lynn Street,1735,,"{""addr:housenumber"": ""1735"", ""addr:street"": ""North Lynn Street"", ""name"": ""Seven Cleaners"", ""shop"": ""dry_cleaning""}"
66,,Artisphere,38.8951919,-77.0697944,arts_centre,,,,,,,,,,,,"{""amenity"": ""arts_centre"", ""name"": ""Artisphere""}"
67,,Capital One,38.894856,-77.070264,bank,,,,,,,,,,,,"{""amenity"": ""bank"", ""brand"": ""Capital One"", ""brand:wikidata"": ""Q1034654"", ""name"": ""Capital One""}"
68,,,38.895211,-77.0700756,parking,,,,,,,,,,,,"{""amenity"": ""parking""}"
69,,,38.895065,-77.069781,post_box,,,,,,,,,,,,"{""amenity"": ""post_box"", ""fixme"": ""Is this still here? The USPS location tool doesn't show anything here."", ""operator"": ""United States Postal Service"", ""operator:short"": ""USPS"", ""operator:type"": ""public"", ""operator:website"": ""https://www.usps.com"", ""operator:wikidata"": ""Q668687"", ""operator:wikipedia"": ""en:United States Postal Service"", ""short_name"": ""USPS""}"
70,,,38.8879557,-77.0757438,recycling,,,,,,,,,,,,"{""amenity"": ""recycling"", ""location"": ""overground"", ""recycling_type"": ""container""}"
71,,Atlantic Parking,38.8977536,-77.0716697,parking,,,,,,,,,,,,"{""amenity"": ""parking"", ""name"": ""Atlantic Parking""}"
72,,Watergate Steps Access South,38.8887785,-77.0527623,,,,,,,,,,,,,"{""access"": ""permissive"", ""canoe"": ""permissive"", ""description"": ""Concrete stairs."", ""fee"": ""no"", ""name"": ""Watergate Steps Access South"", ""parking"": ""no"", ""steps"": ""yes"", ""surface"": ""concrete"", ""tidal"": ""yes"", ""waterway"": ""access_point"", ""wheelchair"": ""no""}"
73,,,38.8930517,-77.0715343,,artwork,,,,,,,,,,,"{""artwork_type"": ""sculpture"", ""tourism"": ""artwork""}"
74,,Post Chapel Gate,38.8803421,-77.0788256,,,,,,,,,,,,,"{""access"": ""private"", ""barrier"": ""gate"", ""military"": ""checkpoint"", ""name"": ""Post Chapel Gate""}"
75,,Memorial Chapel Gate,38.8733286,-77.076787,,,,,,,,,,,,,"{""access"": ""private"", ""barrier"": ""gate"", ""description"": ""Gate closed to the public"", ""name"": ""Memorial Chapel Gate""}"
76,,Selfridge Gate,38.8768127,-77.078477,,,,,,,,,,,,,"{""access"": ""private"", ""barrier"": ""gate"", ""military"": ""checkpoint"", ""name"": ""Selfridge Gate""}"
77,,,38.8941123,-77.0710588,parking,,,,,,,,,,,,"{""amenity"": ""parking"", ""fee"": ""15"", ""layer"": ""-1"", ""parking"": ""underground""}"
78,,,38.8955108,-77.0684453,parking,,,,,,,,,,,,"{""amenity"": ""parking"", ""fee"": ""12"", ""layer"": ""-1"", ""maxstay"": ""Daytime"", ""parking"": ""underground""}"
79,,,38.8970037,-77.0702561,parking,,,,,,,,,,,,"{""amenity"": ""parking"", ""layer"": ""-1"", ""parking"": ""underground""}"
80,,,38.8970977,-77.0689821,parking,,,,,,,,,,,,"{""amenity"": ""parking"", ""layer"": ""-1"", ""parking"": ""underground""}"
81,,Clarendon Blvd and Pierce St,38.893446,-77.0763278,bicycle_rental,,,,,,,,,,,,"{""amenity"": ""bicycle_rental"", ""bicycle_rental"": ""docking_station"", ""brand"": ""Capital Bikeshare"", ""brand:wikidata"": ""Q1034635"", ""capacity"": ""11"", ""dcgis:dataset"": ""CapitalBikeSharePt"", ""dcgis:gis_id"": ""14751625"", ""dcgis:pubdate"": ""2013-03-11"", ""fee"": ""yes"", ""name"": ""Clarendon Blvd and Pierce St"", ""network"": ""Capital Bikeshare"", ""network:wikidata"": ""Q1034635"", ""opening_hours"": ""24/7"", ""operator"": ""Lyft"", ""operator:type"": ""private"", ""operator:wikidata"": ""Q17077936"", ""ref"": ""31016"", ""source"": ""dcgis"", ""website"": ""https://www.capitalbikeshare.com/""}"
82,,Rosslyn Metro / Wilson Blvd and Ft Myer Dr,38.8945997,-77.072305,bicycle_rental,,,,,,,,,,,,"{""amenity"": ""bicycle_rental"", ""bicycle_rental"": ""docking_station"", ""brand"": ""Capital Bikeshare"", ""brand:wikidata"": ""Q1034635"", ""capacity"": ""15"", ""dcgis:dataset"": ""CapitalBikeSharePt"", ""dcgis:gis_id"": ""14751624"", ""dcgis:pubdate"": ""2013-03-11"", ""fee"": ""yes"", ""name"": ""Rosslyn Metro / Wilson Blvd and Ft Myer Dr"", ""network"": ""Capital Bikeshare"", ""network:wikidata"": ""Q1034635"", ""opening_hours"": ""24/7"", ""operator"": ""Lyft"", ""operator:type"": ""private"", ""operator:wikidata"": ""Q17077936"", ""ref"": ""31015"", ""source"": ""dcgis"", ""website"": ""https://www.capitalbikeshare.com/""}"
83,,Wilson and N Quinn St,38.8939765,-77.078639,bicycle_rental,,,,,,,,,,,,"{""amenity"": ""bicycle_rental"", ""bicycle_rental"": ""docking_station"", ""brand"": ""Capital Bikeshare"", ""brand:wikidata"": ""Q1034635"", ""capacity"": ""11"", ""dcgis:dataset"": ""CapitalBikeSharePt"", ""dcgis:gis_id"": ""14751657"", ""dcgis:pubdate"": ""2013-03-11"", ""fee"": ""yes"", ""name"": ""Wilson and N Quinn St"", ""network"": ""Capital Bikeshare"", ""network:wikidata"": ""Q1034635"", ""opening_hours"": ""24/7"", ""operator"": ""Lyft"", ""operator:type"": ""private"", ""operator:wikidata"": ""Q17077936"", ""ref"": ""31027"", ""source"": ""dcgis"", ""website"": ""https://www.capitalbikeshare.com/""}"
84,,N Rhodes and 16th St N,38.892179,-77.0793703,bicycle_rental,,,,,,,,,,,,"{""amenity"": ""bicycle_rental"", ""bicycle_rental"": ""docking_station"", ""brand"": ""Capital Bikeshare"", ""brand:wikidata"": ""Q1034635"", ""capacity"": ""11"", ""dcgis:dataset"": ""CapitalBikeSharePt"", ""dcgis:gis_id"": ""14751627"", ""dcgis:pubdate"": ""2013-03-11"", ""fee"": ""yes"", ""name"": ""N Rhodes and 16th St N"", ""network"": ""Capital Bikeshare"", ""network:wikidata"": ""Q1034635"", ""opening_hours"": ""24/7"", ""operator"": ""Lyft"", ""operator:type"": ""private"", ""operator:wikidata"": ""Q17077936"", ""ref"": ""31018"", ""source"": ""dcgis"", ""website"": ""https://www.capitalbikeshare.com/""}"
85,,,38.8927273,-77.0619724,toilets,,,,,,,,,,,,"{""amenity"": ""toilets"", ""fee"": ""no""}"
86,,Esri R&D Center DC,38.8972455,-77.0689527,,,,,,,,it,,19th Street North,1001,Arlington,"{""addr:city"": ""Arlington"", ""addr:housename"": ""Suite 910"", ""addr:housenumber"": ""1001"", ""addr:postcode"": ""22903"", ""addr:street"": ""19th Street North"", ""name"": ""Esri R&D Center DC"", ""office"": ""it"", ""website"": ""https://dc.esri.com/""}"
87,,,38.898841,-77.071793,toilets,,,,,,,,,,,,"{""access"": ""yes"", ""amenity"": ""toilets"", ""opening_hours"": ""sunrise-sunset"", ""wheelchair"": ""yes""}"
88,,,38.8988099,-77.0718063,drinking_water,,,,,,,,,,,,"{""amenity"": ""drinking_water"", ""bottle"": ""no"", ""drinking_water:seasonal"": ""yes"", ""layer"": ""0""}"
89,,City House,38.8950719,-77.0726007,restaurant,,,,,,,,,Wilson Boulevard,1325,Arlington,"{""addr:city"": ""Arlington"", ""addr:housenumber"": ""1325"", ""addr:postcode"": ""22209-2301"", ""addr:state"": ""VA"", ""addr:street"": ""Wilson Boulevard"", ""amenity"": ""restaurant"", ""check_date"": ""2023-02-15"", ""name"": ""City House"", ""phone"": ""+1 703-276-8999"", ""website"": ""http://www.cityhouse.com/""}"
90,,Guajillo,38.894161,-77.079019,restaurant,,,,,,,,,Wilson Boulevard,1727,Arlington,"{""addr:city"": ""Arlington"", ""addr:housenumber"": ""1727"", ""addr:postcode"": ""22209"", ""addr:state"": ""VA"", ""addr:street"": ""Wilson Boulevard"", ""amenity"": ""restaurant"", ""cuisine"": ""mexican"", ""name"": ""Guajillo"", ""opening_hours"": ""Mo-Tu 16:00-20:30; We 16:00-21:30; Th 12:00-21:00; Fr-Su 12:00-22:00"", ""phone"": ""+1-703-807-0840"", ""website"": ""https://www.guajillomexican.com/""}"
91,,IceBerry,38.8942697,-77.0786854,cafe,,,,,,,,,Wilson Boulevard,1715,Arlington,"{""addr:city"": ""Arlington"", ""addr:housenumber"": ""1715"", ""addr:postcode"": ""22209"", ""addr:street"": ""Wilson Boulevard"", ""amenity"": ""cafe"", ""cuisine"": ""ice_cream"", ""name"": ""IceBerry"", ""opening_hours"": ""Mo-Fr 11:30-21:45; Sa-Su 11:00-21:45""}"
92,,Kanpai,38.8953128,-77.0736358,restaurant,,,,,,,,,,,,"{""amenity"": ""restaurant"", ""cuisine"": ""japanese"", ""level"": ""2"", ""name"": ""Kanpai"", ""opening_hours"": ""Mo-Sa 11:30-22:00""}"
93,,Subway,38.895772,-77.0736787,fast_food,,,,,,,,,,,,"{""amenity"": ""fast_food"", ""brand"": ""Subway"", ""brand:wikidata"": ""Q244457"", ""cuisine"": ""sandwich"", ""fixme:atp"": ""no ATP match, check if still exists"", ""level"": ""2"", ""name"": ""Subway"", ""opening_hours"": ""Mo-Fr 07:00-21:00; Sa 09:30-15:00"", ""takeaway"": ""yes""}"
94,,Continental Modern Pool Lounge,38.897949,-77.0716336,bar,,,,,,,,,North Fort Myer Drive,1911,Rosslyn,"{""addr:city"": ""Rosslyn"", ""addr:housenumber"": ""1911"", ""addr:postcode"": ""22209"", ""addr:state"": ""VA"", ""addr:street"": ""North Fort Myer Drive"", ""amenity"": ""bar"", ""name"": ""Continental Modern Pool Lounge"", ""opening_hours"": ""Mo-Fr 11:30-02:00; Sa-Su 18:00-02:00"", ""phone"": ""+1-703-465-7675"", ""website"": ""https://continentalpoollounge.com/""}"
95,,Guerra Steakhouse,38.8941873,-77.0789569,restaurant,,,,,,,,,Wilson Boulevard,1725,,"{""addr:housenumber"": ""1725"", ""addr:postcode"": ""22209"", ""addr:state"": ""VA"", ""addr:street"": ""Wilson Boulevard"", ""amenity"": ""restaurant"", ""cuisine"": ""steak_house"", ""name"": ""Guerra Steakhouse"", ""opening_hours"": ""Mo-Fr 17:00-21:00; Sa-Su 11:30-14:00, 17:00-21:00"", ""phone"": ""+1 571-431-6726"", ""website"": ""https://www.guerrasteakhouse.com/""}"
96,,Yoga Alliance,38.8933991,-77.0777728,,,,,,,,educational_institution,,Clarendon Boulevard,1701,Arlington,"{""addr:city"": ""Arlington"", ""addr:housenumber"": ""1701"", ""addr:postcode"": ""22201"", ""addr:street"": ""Clarendon Boulevard"", ""name"": ""Yoga Alliance"", ""office"": ""educational_institution"", ""website"": ""https://www.yogaalliance.org/""}"
97,,Cal UMS,38.8934226,-77.0776012,,,,,,,,educational_institution,,Clarendon Boulevard,1701,Arlington,"{""addr:city"": ""Arlington"", ""addr:housenumber"": ""1701"", ""addr:postcode"": ""22201"", ""addr:street"": ""Clarendon Boulevard"", ""name"": ""Cal UMS"", ""office"": ""educational_institution"", ""website"": ""https://www.calums.edu/web2/va/v11_about_calums.htm""}"
98,,Quinn's on the Corner,38.8937938,-77.0784291,bar,,,,,,,,,Wilson Boulevard,1776,,"{""addr:housenumber"": ""1776"", ""addr:state"": ""VA"", ""addr:street"": ""Wilson Boulevard"", ""amenity"": ""bar"", ""check_date"": ""2023-06-13"", ""cuisine"": ""american"", ""name"": ""Quinn's on the Corner"", ""opening_hours"": ""Mo-Fr 11:30-24:00; Sa-Su 10:00-24:00"", ""phone"": ""+1 703-640-3566"", ""website"": ""https://www.quinnsonthecorner.com/""}"
99,,Mobility Lab,38.8952952,-77.0741804,,,,,,,,research,,,,,"{""name"": ""Mobility Lab"", ""office"": ""research"", ""website"": ""https://mobilitylab.org/""}"
100,,,38.8938607,-77.0770049,parking,,,,,,,,,,,,"{""access"": ""yes"", ""amenity"": ""parking"", ""fee"": ""yes"", ""layer"": ""-1"", ""note"": ""Parking for 1650 Wilson Blvd and 1601 Clarendon Blvd. Both private parking spaces and public parking spaces are available."", ""park_ride"": ""no"", ""parking"": ""underground""}"
101,,Bourbon Coffee,38.897471,-77.070513,cafe,,,,,,,,,North Lynn Street,1919,Arlington,"{""addr:city"": ""Arlington"", ""addr:housenumber"": ""1919"", ""addr:postcode"": ""22209"", ""addr:state"": ""VA"", ""addr:street"": ""North Lynn Street"", ""amenity"": ""cafe"", ""cuisine"": ""coffee_shop"", ""internet_access"": ""yes"", ""name"": ""Bourbon Coffee"", ""opening_hours"": ""Mo-Fr 06:30-18:00; Sa off; Su off"", ""phone"": ""+1 571-364-0731"", ""website"": ""https://www.bourboncoffeeusa.com""}"
102,,,38.8942071,-77.0748466,parking,,,,,,,,,,,,"{""amenity"": ""parking"", ""fee"": ""yes"", ""layer"": ""-1"", ""parking"": ""underground""}"
103,,,38.8949323,-77.0753473,parking,,,,,,,,,,,,"{""access"": ""customers"", ""amenity"": ""parking"", ""layer"": ""-1"", ""parking"": ""underground""}"
104,,CRDF Global,38.8938241,-77.0782438,,,,,,,,ngo,,Wilson Boulevard,"1776, Suite 300",Arlington,"{""addr:city"": ""Arlington"", ""addr:housenumber"": ""1776, Suite 300"", ""addr:postcode"": ""22209"", ""addr:state"": ""VA"", ""addr:street"": ""Wilson Boulevard"", ""name"": ""CRDF Global"", ""office"": ""ngo"", ""opening_hours"": ""\""it's an office building\"""", ""smoking"": ""no""}"
105,,River Place Market,38.8927712,-77.0692542,,,,,,convenience,,,,,,,"{""name"": ""River Place Market"", ""shop"": ""convenience""}"
106,,Jon David Salon,38.8935821,-77.0790852,,,,,,hairdresser,,,,Wilson Boulevard,1800,Arlington,"{""addr:city"": ""Arlington"", ""addr:housenumber"": ""1800"", ""addr:postcode"": ""22201"", ""addr:street"": ""Wilson Boulevard"", ""name"": ""Jon David Salon"", ""shop"": ""hairdresser"", ""website"": ""www.jondavidsalon.com""}"
107,,Panera Bread,38.8955517,-77.0717206,fast_food,,,,,,,,,North Moore Street,1700,Arlington,"{""addr:city"": ""Arlington"", ""addr:housenumber"": ""1700"", ""addr:postcode"": ""22209"", ""addr:state"": ""VA"", ""addr:street"": ""North Moore Street"", ""amenity"": ""fast_food"", ""brand"": ""Panera Bread"", ""brand:wikidata"": ""Q7130852"", ""cuisine"": ""sandwich;bakery"", ""indoor_seating"": ""yes"", ""name"": ""Panera Bread"", ""opening_hours"": ""Mo-Fr 06:00-20:00; Sa-Su 07:00-20:00"", ""outdoor_seating"": ""no"", ""phone"": ""+1 703-812-4690"", ""short_name"": ""Panera"", ""takeaway"": ""yes"", ""website"": ""https://locations.panerabread.com/va/arlington/1700-n-moore-street.html""}"
108,,Capriotti's,38.894604,-77.074284,,,,,,,,,,,,,"{""brand"": ""Capriotti's"", ""brand:wikidata"": ""Q5036283"", ""check_date"": ""2024-08-27"", ""cuisine"": ""sandwich"", ""disused:amenity"": ""fast_food"", ""name"": ""Capriotti's"", ""opening_hours"": ""Mo-Fr 09:00-20:00; Sa 10:00-19:00; Su 11:00-19:00"", ""takeaway"": ""yes""}"
109,,Amuse,38.8973014,-77.0700556,restaurant,,,,,,,,,19th Street North,1121,Arlington,"{""addr:city"": ""Arlington"", ""addr:housenumber"": ""1121"", ""addr:postcode"": ""22209"", ""addr:state"": ""VA"", ""addr:street"": ""19th Street North"", ""amenity"": ""restaurant"", ""cuisine"": ""american"", ""name"": ""Amuse"", ""source"": ""esri/USA_NAD_Addresses"", ""website"": ""https://www.rosslynva.org/go/amuse""}"
110,,Inca Social,38.893944,-77.078144,restaurant,,,,,,,,,Wilson Boulevard,1776,Arlington,"{""addr:city"": ""Arlington"", ""addr:housenumber"": ""1776"", ""addr:postcode"": ""22209-2515"", ""addr:state"": ""VA"", ""addr:street"": ""Wilson Boulevard"", ""amenity"": ""restaurant"", ""cuisine"": ""peruvian"", ""name"": ""Inca Social"", ""opening_hours"": ""Su-We 11:00-22:00; Th 11:00-23:00; Fr 11:00-24:00"", ""phone"": ""+1-571-312-7664"", ""website"": ""https://incasocial.com/""}"
111,,Potbelly,38.8958678,-77.0705688,fast_food,,,,,,,,,North Lynn Street,1735,Arlington,"{""addr:city"": ""Arlington"", ""addr:country"": ""US"", ""addr:housenumber"": ""1735"", ""addr:postcode"": ""22209"", ""addr:state"": ""VA"", ""addr:street"": ""North Lynn Street"", ""amenity"": ""fast_food"", ""brand"": ""Potbelly"", ""brand:wikidata"": ""Q7234777"", ""check_date"": ""2023-06-15"", ""cuisine"": ""sandwich"", ""delivery"": ""no"", ""drive_through"": ""no"", ""name"": ""Potbelly"", ""official_name"": ""Potbelly Sandwich Works"", ""opening_hours"": ""Mo-Fr 10:00-22:00; Sa-Su 10:00-20:00"", ""phone"": ""+1 703-717-5033"", ""ref"": ""137008"", ""takeaway"": ""yes""}"
112,,BurgerFi,38.895352,-77.070304,fast_food,,,,,,,,,North Lynn Street,1735,Arlington,"{""addr:city"": ""Arlington"", ""addr:housenumber"": ""1735"", ""addr:postcode"": ""22209-2013"", ""addr:state"": ""VA"", ""addr:street"": ""North Lynn Street"", ""amenity"": ""fast_food"", ""brand"": ""BurgerFi"", ""brand:wikidata"": ""Q39045496"", ""check_date"": ""2024-01-11"", ""cuisine"": ""burger"", ""name"": ""BurgerFi"", ""phone"": ""+1-571-429-4857"", ""takeaway"": ""yes"", ""website"": ""https://order.burgerfi.com/menu/arlington-va-rosslyn""}"
113,,AHRA Cafe & Sandwich Bar,38.8947583,-77.0703283,restaurant,,,,,,,,,Wilson Boulevard,1100,Arlington,"{""addr:city"": ""Arlington"", ""addr:housenumber"": ""1100"", ""addr:postcode"": ""22209"", ""addr:state"": ""VA"", ""addr:street"": ""Wilson Boulevard"", ""amenity"": ""restaurant"", ""cuisine"": ""sandwich"", ""name"": ""AHRA Cafe & Sandwich Bar"", ""phone"": ""+1 703-522-2224"", ""website"": ""https://www.ahracafe.com/""}"
114,,AllSpice Cafe & Catering,38.8953156,-77.0734275,restaurant,,,,,,,,,,,,"{""amenity"": ""restaurant"", ""cuisine"": ""sandwich"", ""name"": ""AllSpice Cafe & Catering""}"
115,,Truist,38.8974478,-77.0721757,bank,,,,,,,,,,,,"{""amenity"": ""bank"", ""brand"": ""Truist"", ""brand:wikidata"": ""Q795486"", ""name"": ""Truist"", ""official_name"": ""Branch Banking and Trust Company""}"
116,,Metro Dry Cleaners,38.897567,-77.0719239,,,,,,dry_cleaning,,,,,,,"{""name"": ""Metro Dry Cleaners"", ""shop"": ""dry_cleaning""}"
117,,Smiledesigner,38.897732,-77.0721352,dentist,,,,,,,,,,,,"{""amenity"": ""dentist"", ""healthcare"": ""dentist"", ""name"": ""Smiledesigner""}"
118,,Wise Guys Pizza,38.89635,-77.0705842,fast_food,,,,,,,,,,,,"{""amenity"": ""fast_food"", ""cuisine"": ""pizza"", ""name"": ""Wise Guys Pizza"", ""opening_hours"": ""Mo 11:00-21:00; Tu-Sa 11:00-22:00; Su 11:00-21:00"", ""phone"": ""+1 703-358-8880"", ""website"": ""https://www.wiseguypizza.com/""}"
119,,,38.8955595,-77.0736318,,,,,,,,,,North Oak Street,1401,,"{""addr:housenumber"": ""1401"", ""addr:street"": ""North Oak Street"", ""survey:date"": ""2015-10-05""}"
120,,,38.8949636,-77.0754493,,,,,,,,,,North Wilson Boulevard,1525,,"{""addr:housenumber"": ""1525"", ""addr:street"": ""North Wilson Boulevard"", ""survey:date"": ""2015-10-05""}"
121,,South Block,38.8943704,-77.0759139,cafe,,,,,,,,,North Wilson Boulevard,1550,Arlington,"{""addr:city"": ""Arlington"", ""addr:housenumber"": ""1550"", ""addr:postcode"": ""22209-2405"", ""addr:state"": ""VA"", ""addr:street"": ""North Wilson Boulevard"", ""amenity"": ""cafe"", ""brand"": ""South Block"", ""brand:wikidata"": ""Q116456009"", ""cuisine"": ""juice;smoothie;coffee;açaí"", ""name"": ""South Block"", ""opening_hours"": ""Mo-Su 08:00-19:00"", ""outdoor_seating"": ""yes"", ""phone"": ""+1 703-465-8423"", ""survey:date"": ""2015-10-05"", ""website"": ""https://www.southblockjuice.com/"", ""wheelchair"": ""yes""}"
122,,,38.8935265,-77.0792835,,,,,,,,,,North Wilson Boulevard,1800,,"{""addr:housenumber"": ""1800"", ""addr:street"": ""North Wilson Boulevard"", ""survey:date"": ""2015-10-05""}"
123,,Social Security Administration,38.8955459,-77.073568,,,,,,,,government,,,,,"{""government"": ""social_security"", ""name"": ""Social Security Administration"", ""office"": ""government"", ""operator"": ""Social Security Administration"", ""operator:short"": ""SSA"", ""operator:wikidata"": ""Q2824618"", ""website"": ""https://www.socialsecurity.gov/""}"
124,,,38.8957368,-77.0741116,,,,,,hairdresser,,,,,,,"{""shop"": ""hairdresser""}"
125,,Playful Pack,38.8935647,-77.0752574,animal_boarding,,,,,,,,,,,,"{""amenity"": ""animal_boarding"", ""check_date"": ""2023-06-27"", ""name"": ""Playful Pack""}"
126,,E60 Fitness,38.8936192,-77.0749787,,,,,,,fitness_centre,,,,,,"{""check_date"": ""2023-06-27"", ""leisure"": ""fitness_centre"", ""name"": ""E60 Fitness""}"
127,,Target,38.8946186,-77.0741766,,,,,,department_store,,,,Wilson Boulevard,1500,Rosslyn,"{""addr:city"": ""Rosslyn"", ""addr:country"": ""US"", ""addr:housenumber"": ""1500"", ""addr:postcode"": ""22209-2458"", ""addr:state"": ""VA"", ""addr:street"": ""Wilson Boulevard"", ""brand"": ""Target"", ""brand:wikidata"": ""Q1046951"", ""image"": ""https://assets.targetimg1.com/webui/store-locator/targetlogo-6.jpeg"", ""name"": ""Target"", ""opening_hours"": ""Mo-Fr 07:00-22:00; Sa-Su 08:00-22:00"", ""payment:mastercard"": ""yes"", ""payment:visa"": ""yes"", ""phone"": ""+1-571-777-2438"", ""shop"": ""department_store"", ""website"": ""https://www.target.com/sl/rosslyn/3210""}"
128,,Saigon Noodles & Grill,38.8936805,-77.0788137,restaurant,,,,,,,,,Wilson Boulevard,1800,Arlington,"{""addr:city"": ""Arlington"", ""addr:housenumber"": ""1800"", ""addr:postcode"": ""22201-6601"", ""addr:state"": ""VA"", ""addr:street"": ""Wilson Boulevard"", ""amenity"": ""restaurant"", ""cuisine"": ""vietnamese"", ""name"": ""Saigon Noodles & Grill"", ""opening_hours"": ""Mo-Su 11:00-22:00"", ""phone"": ""+1 703-566-5940"", ""website"": ""https://www.saigonnoodlesgrill.com/""}"
129,,,38.8951207,-77.0734517,parking,,,,,,,,,,,,"{""amenity"": ""parking""}"
130,,Barley Mac,38.8940748,-77.0773865,restaurant,,,,,,,,,Wilson Boulevard,1600,Arlington,"{""addr:city"": ""Arlington"", ""addr:housenumber"": ""1600"", ""addr:postcode"": ""22209-2500"", ""addr:state"": ""VA"", ""addr:street"": ""Wilson Boulevard"", ""amenity"": ""restaurant"", ""cuisine"": ""american"", ""name"": ""Barley Mac"", ""opening_hours"": ""Mo-We 11:00-22:30; Th 11:00-10:30; Fr 11:00-22:30; Sa 10:30-22:30; Su 10:30-21:00"", ""phone"": ""+1 571-800-3070"", ""website"": ""https://barleymac.com/"", ""wheelchair"": ""yes""}"
131,,Wells Fargo,38.8946225,-77.0740672,atm,,,,,,,,,,,,"{""amenity"": ""atm"", ""brand"": ""Wells Fargo"", ""brand:wikidata"": ""Q744149"", ""name"": ""Wells Fargo"", ""opening_hours"": ""Mo-Fr 09:00-17:00"", ""operator"": ""Wells Fargo"", ""operator:wikidata"": ""Q744149"", ""phone"": ""+1 703-340-2684""}"
132,,Tacos El Chilango,38.89038,-77.0783956,fast_food,,,,,,,,,,,,"{""amenity"": ""fast_food"", ""cuisine"": ""mexican"", ""name"": ""Tacos El Chilango"", ""opening_hours"": ""Mo-Sa 11:00-20:00; Su off""}"
133,,Iwo Jima Memorial / Meade & 14th St N,38.8898754,-77.0712995,bicycle_rental,,,,,,,,,,,,"{""amenity"": ""bicycle_rental"", ""bicycle_rental"": ""docking_station"", ""brand"": ""Capital Bikeshare"", ""brand:wikidata"": ""Q1034635"", ""capacity"": ""19"", ""fee"": ""yes"", ""name"": ""Iwo Jima Memorial / Meade & 14th St N"", ""network"": ""Capital Bikeshare"", ""network:wikidata"": ""Q1034635"", ""opening_hours"": ""24/7"", ""operator"": ""Lyft"", ""operator:type"": ""private"", ""operator:wikidata"": ""Q17077936"", ""website"": ""https://www.capitalbikeshare.com/""}"
134,,Rosslyn Map,38.8902102,-77.0713277,,information,,,,,,,,,,,"{""name"": ""Rosslyn Map"", ""tourism"": ""information""}"
135,,Continental Beer Garden,38.8973693,-77.0716695,biergarten,,,,,,,,,,,,"{""amenity"": ""biergarten"", ""name"": ""Continental Beer Garden"", ""opening_hours"": ""Mo-Fr 11:30-02:00; Sa-Su 18:00-02:00"", ""phone"": ""+1-703-465-7675"", ""website"": ""https://continentalpoollounge.com/continental-beer-garden/""}"
136,,Custis Trail,38.8990925,-77.071104,,,,,,,,,,,,,"{""display"": ""digital"", ""man_made"": ""monitoring_station"", ""monitoring:bicycle"": ""yes"", ""name"": ""Custis Trail"", ""operator"": ""Arlington County"", ""support"": ""pedestal"", ""visibility"": ""street"", ""website"": ""https://www.bikearlington.com/bikeometer/"", ""website:data"": ""https://arlingtoncountydot.eco-counter.com/site/100011517""}"
137,,District Taco,38.8945241,-77.0740381,fast_food,,,,,,,,,Wilson Boulevard,1500,,"{""addr:housenumber"": ""1500"", ""addr:state"": ""VA"", ""addr:street"": ""Wilson Boulevard"", ""amenity"": ""fast_food"", ""brand"": ""District Taco"", ""brand:wikidata"": ""Q26237090"", ""check_date"": ""2025-03-11"", ""check_date:opening_hours"": ""2025-03-11"", ""cuisine"": ""mexican"", ""name"": ""District Taco"", ""opening_hours"": ""08:00-22:00"", ""phone"": ""+1 571-290-6854"", ""takeaway"": ""yes"", ""website"": ""https://www.districttaco.com/"", ""wheelchair"": ""yes""}"
138,,Theodore Roosevelt,38.897436,-77.06394,,artwork,,,,,,,,,,,"{""artwork_type"": ""statue"", ""name"": ""Theodore Roosevelt"", ""subject:wikidata"": ""Q33866"", ""tourism"": ""artwork""}"
139,,,38.8991253,-77.0650347,drinking_water,,,,,,,,,,,,"{""amenity"": ""drinking_water"", ""drinking_water:seasonal"": ""yes""}"
140,,,38.8926737,-77.0619531,drinking_water,,,,,,,,,,,,"{""amenity"": ""drinking_water"", ""drinking_water:seasonal"": ""yes""}"
141,,Viewing Area,38.8904914,-77.070591,,viewpoint,,,,,,,,,,,"{""name"": ""Viewing Area"", ""tourism"": ""viewpoint""}"
142,,,38.8949942,-77.0691714,parking_entrance,,,,,,,,,,,,"{""amenity"": ""parking_entrance""}"
143,,,38.8960925,-77.0800973,parking_entrance,,,,,,,,,,,,"{""amenity"": ""parking_entrance""}"
144,,,38.8947814,-77.0791477,parking_entrance,,,,,,,,,,,,"{""amenity"": ""parking_entrance""}"
145,,,38.8977961,-77.0715604,parking_entrance,,,,,,,,,,,,"{""amenity"": ""parking_entrance""}"
146,,,38.8934399,-77.0737421,parking_entrance,,,,,,,,,,,,"{""amenity"": ""parking_entrance""}"
147,,,38.894154,-77.0748084,parking_entrance,,,,,,,,,,,,"{""amenity"": ""parking_entrance""}"
148,,,38.8942917,-77.0748149,parking_entrance,,,,,,,,,,,,"{""amenity"": ""parking_entrance""}"
149,,,38.8895961,-77.0716957,,,,,,,,,,,1304,,"{""addr:housenumber"": ""1304""}"
150,,,38.8909338,-77.072146,,,,,,,,,,14th Street North,1331,,"{""addr:housenumber"": ""1331"", ""addr:street"": ""14th Street North""}"
151,,,38.8906564,-77.0723641,,,,,,,,,,North Nash Street,1413,,"{""addr:housenumber"": ""1413"", ""addr:street"": ""North Nash Street""}"
152,,,38.8897924,-77.0753159,,,,,,,,,,North Ode Street,1311,,"{""addr:housenumber"": ""1311"", ""addr:street"": ""North Ode Street""}"
153,,,38.8898383,-77.0741152,,,,,,,,,,,1317,,"{""addr:housenumber"": ""1317""}"
154,,,38.8884787,-77.0750711,,,,,,,,,,North Fort Myer Drive,1209,,"{""addr:housenumber"": ""1209"", ""addr:street"": ""North Fort Myer Drive""}"
155,,,38.8880655,-77.0730579,,,,,,,,,,12th Street North,1404,,"{""addr:housenumber"": ""1404"", ""addr:street"": ""12th Street North""}"
156,,,38.8890555,-77.0720233,,,,,,,,,,North Nash Street,1231,,"{""addr:housenumber"": ""1231"", ""addr:street"": ""North Nash Street""}"
157,,,38.8891099,-77.0720475,,,,,,,,,,North Nash Street,1239,,"{""addr:housenumber"": ""1239"", ""addr:street"": ""North Nash Street""}"
158,,,38.8913571,-77.0722599,,,,,,,,,,North Nash Street,1425,,"{""addr:housenumber"": ""1425"", ""addr:street"": ""North Nash Street""}"
159,,,38.890333,-77.0718128,,,,,,,,,,14th Street North,1301,,"{""addr:housenumber"": ""1301"", ""addr:street"": ""14th Street North""}"
160,,,38.8879393,-77.0732749,,,,,,,,,,12th Street North,1410,,"{""addr:housenumber"": ""1410"", ""addr:state"": ""VA"", ""addr:street"": ""12th Street North"", ""addr:unit"": ""B""}"
161,,,38.8878614,-77.0732858,,,,,,,,,,,1414,,"{""addr:housenumber"": ""1414""}"
162,,,38.8903238,-77.0715835,,,,,,,,,,North Meade Street,1400,,"{""addr:housenumber"": ""1400"", ""addr:street"": ""North Meade Street""}"
163,,call#44279,38.8904288,-77.0730514,bureau_de_change,,,,,,,,,,,,"{""amenity"": ""bureau_de_change"", ""name"": ""call#44279""}"
164,,,38.8882797,-77.0748472,,,,,,,,,,12th Street North,1515,,"{""addr:housenumber"": ""1515"", ""addr:street"": ""12th Street North""}"
165,,,38.8883554,-77.0744262,,,,,,,,,,12th Street North,1503,,"{""addr:housenumber"": ""1503"", ""addr:state"": ""VA"", ""addr:street"": ""12th Street North"", ""addr:unit"": ""A""}"
166,,,38.890813,-77.0718583,,,,,,,,,,14th Street North,1317,,"{""addr:housenumber"": ""1317"", ""addr:street"": ""14th Street North""}"
167,,,38.8907451,-77.0718475,,,,,,,,,,14th Street North,1315,,"{""addr:housenumber"": ""1315"", ""addr:street"": ""14th Street North""}"
168,,,38.8892661,-77.0716509,,,,,,,,,,North Meade Street,1222,,"{""addr:housenumber"": ""1222"", ""addr:street"": ""North Meade Street""}"
169,,,38.8903146,-77.0722105,,,,,,,,,,North Nash Street,1401,,"{""addr:housenumber"": ""1401"", ""addr:street"": ""North Nash Street""}"
170,,,38.8908743,-77.0724403,,,,,,,,,,North Nash Street,1421,,"{""addr:housenumber"": ""1421"", ""addr:street"": ""North Nash Street""}"
171,,,38.8915206,-77.0723218,,,,,,,,,,North Nash Street,1427,,"{""addr:housenumber"": ""1427"", ""addr:street"": ""North Nash Street""}"
172,,,38.8895354,-77.0721343,,,,,,,,,,,1300,,"{""addr:housenumber"": ""1300""}"
173,,,38.8881009,-77.0727565,,,,,,,,,,12th Street North,1402,,"{""addr:housenumber"": ""1402"", ""addr:street"": ""12th Street North""}"
174,,,38.8888441,-77.0719917,,,,,,,,,,,1221,,"{""addr:housenumber"": ""1221""}"
175,,,38.8878851,-77.0733547,,,,,,,,,,12th Street North,1416,,"{""addr:housenumber"": ""1416"", ""addr:state"": ""VA"", ""addr:street"": ""12th Street North"", ""addr:unit"": ""B""}"
176,,,38.8888958,-77.0719962,,,,,,,,,,North Nash Street,1229,,"{""addr:housenumber"": ""1229"", ""addr:street"": ""North Nash Street""}"
177,,,38.8905837,-77.0723679,,,,,,,,,,North Nash Street,1411,,"{""addr:housenumber"": ""1411"", ""addr:street"": ""North Nash Street""}"
178,,,38.8889313,-77.0729124,,,,,,,,,,North Nash Street,1200,,"{""addr:housenumber"": ""1200"", ""addr:street"": ""North Nash Street""}"
179,,,38.8899624,-77.0741718,,,,,,,,,,,1319,,"{""addr:housenumber"": ""1319""}"
180,,,38.8908483,-77.0721257,,,,,,,,,,14th Street North,1333,,"{""addr:housenumber"": ""1333"", ""addr:street"": ""14th Street North""}"
181,,,38.8903958,-77.0718216,,,,,,,,,,14th Street North,1303,,"{""addr:housenumber"": ""1303"", ""addr:street"": ""14th Street North""}"
182,,1315,38.8899988,-77.075372,,,,,,,,,,North Ode Street,,,"{""addr:street"": ""North Ode Street"", ""name"": ""1315""}"
183,,,38.890447,-77.071825,,,,,,,,,,14th Street North,1305,,"{""addr:housenumber"": ""1305"", ""addr:street"": ""14th Street North""}"
184,,,38.887793,-77.0746169,,,,,,,,,,12th Street North,1510,,"{""addr:housenumber"": ""1510"", ""addr:street"": ""12th Street North""}"
185,,,38.8880494,-77.0732708,,,,,,,,,,12th Street North,1408,,"{""addr:housenumber"": ""1408"", ""addr:state"": ""VA"", ""addr:street"": ""12th Street North"", ""addr:unit"": ""B""}"
186,,Pass 955,38.8962478,-77.0686707,bureau_de_change,,,,,,,,,,,,"{""amenity"": ""bureau_de_change"", ""name"": ""Pass 955""}"
187,,,38.8933191,-77.0694332,parking_entrance,,,,,,,,,,,,"{""amenity"": ""parking_entrance""}"
188,,,38.8949951,-77.0789306,,,,,,,,,,North Quinn Street,1804,,"{""addr:housenumber"": ""1804"", ""addr:street"": ""North Quinn Street""}"
189,,,38.8931476,-77.0786539,,,,,,,,,,Clarendon Boulevard,1731,Arlington,"{""addr:city"": ""Arlington"", ""addr:housenumber"": ""1731"", ""addr:state"": ""VA"", ""addr:street"": ""Clarendon Boulevard""}"
190,,,38.8946529,-77.0786683,,,,,,,,,,North Quinn Street,1726,,"{""addr:housenumber"": ""1726"", ""addr:street"": ""North Quinn Street""}"
191,,,38.8945025,-77.0784777,,,,,,,,,,North Quinn Street,1722,,"{""addr:housenumber"": ""1722"", ""addr:street"": ""North Quinn Street""}"
192,,,38.8956999,-77.0788077,,,,,,,,,,North Quinn Street,1812,,"{""addr:housenumber"": ""1812"", ""addr:street"": ""North Quinn Street""}"
193,,,38.885482,-77.0636801,,,switch,,,,,,,,,,"{""railway"": ""switch"", ""ref"": ""3B""}"
194,,,38.8857083,-77.0637985,,,railway_crossing,,,,,,,,,,"{""railway"": ""railway_crossing""}"
195,,,38.8859214,-77.0638945,,,switch,,,,,,,,,,"{""railway"": ""switch"", ""ref"": ""3A""}"
196,,,38.8859028,-77.0639419,,,switch,,,,,,,,,,"{""railway"": ""switch"", ""ref"": ""1B""}"
197,,,38.8854986,-77.0636347,,,switch,,,,,,,,,,"{""railway"": ""switch"", ""ref"": ""1A""}"
198,,,38.894659,-77.0708487,,,switch,,,,,,,,,,"{""railway"": ""switch"", ""ref"": ""1""}"
199,,McPherson Square,38.9013538,-77.0320859,,,stop,stop_position,,,,,,,,,"{""name"": ""McPherson Square"", ""network"": ""Washington Metro"", ""operator"": ""Washington Metropolitan Area Transit Authority"", ""public_transport"": ""stop_position"", ""railway"": ""stop"", ""subway"": ""yes""}"
200,,Compass Coffee,38.895368,-77.071271,cafe,,,,,,,,,Wilson Boulevard,1201,Rosslyn,"{""addr:city"": ""Rosslyn"", ""addr:housenumber"": ""1201"", ""addr:postcode"": ""22209"", ""addr:state"": ""VA"", ""addr:street"": ""Wilson Boulevard"", ""amenity"": ""cafe"", ""brand:wikidata"": ""Q55608242"", ""check_date"": ""2025-11-05"", ""check_date:currency:XBT"": ""2025-11-05"", ""contact:instagram"": ""compasscoffeedc"", ""cuisine"": ""coffee_shop"", ""currency:XBT"": ""yes"", ""internet_access"": ""wlan"", ""internet_access:fee"": ""no"", ""internet_access:ssid"": ""compass"", ""name"": ""Compass Coffee"", ""opening_hours"": ""Mo-Fr 06:00-18:00; Sa-Su 07:00-17:00"", ""outdoor_seating"": ""yes"", ""payment:lightning"": ""yes"", ""payment:lightning:operator"": ""square"", ""payment:lightning_contactless"": ""no"", ""payment:mastercard"": ""yes"", ""payment:onchain"": ""no"", ""payment:visa"": ""yes"", ""phone"": ""+1-202-746-5510"", ""website"": ""https://www.compasscoffee.com/""}"
201,,Nando's,38.8968343,-77.0712751,restaurant,,,,,,,,,,,,"{""amenity"": ""restaurant"", ""brand"": ""Nando's"", ""brand:wikidata"": ""Q3472954"", ""cuisine"": ""chicken;portuguese"", ""name"": ""Nando's"", ""opening_hours"": ""Mo-Th 10:00-20:30; Fr 10:00-21:30; Sa-Su 11:00-19:00"", ""phone"": ""+1 571-200-7909"", ""website"": ""https://www.nandosperiperi.com/find/rosslyn/""}"
202,,McDonald's,38.8962936,-77.0712227,fast_food,,,,,,,,,North Lynn Street,1800,Arlington,"{""addr:city"": ""Arlington"", ""addr:housenumber"": ""1800"", ""addr:postcode"": ""22209"", ""addr:state"": ""VA"", ""addr:street"": ""North Lynn Street"", ""amenity"": ""fast_food"", ""brand"": ""McDonald's"", ""brand:wikidata"": ""Q38076"", ""check_date"": ""2023-06-15"", ""cuisine"": ""burger"", ""internet_access"": ""wlan"", ""name"": ""McDonald's"", ""opening_hours"": ""24/7"", ""operator"": ""McDonald's"", ""phone"": ""+1 571-257-7789"", ""takeaway"": ""yes"", ""website"": ""https://www.mcdonalds.com/us/en-us/location/33371.html""}"
203,,Court House,38.8908443,-77.0855937,,,stop,stop_position,,,,,,,,,"{""name"": ""Court House"", ""network"": ""Washington Metro"", ""operator"": ""Washington Metropolitan Area Transit Authority"", ""public_transport"": ""stop_position"", ""railway"": ""stop"", ""subway"": ""yes""}"
204,,Court House,38.89082,-77.0855665,,,stop,stop_position,,,,,,,,,"{""name"": ""Court House"", ""network"": ""Washington Metro"", ""operator"": ""Washington Metropolitan Area Transit Authority"", ""public_transport"": ""stop_position"", ""railway"": ""stop"", ""subway"": ""yes""}"
205,,,38.8942128,-77.0708753,,,signal,,,,,,,,,,"{""railway"": ""signal"", ""railway:signal:direction"": ""forward"", ""ref"": ""C05 14""}"
206,,,38.894233,-77.0708253,,,signal,,,,,,,,,,"{""railway"": ""signal"", ""railway:signal:direction"": ""forward"", ""ref"": ""C05 04""}"
207,,,38.8942131,-77.0709193,,,signal,,,,,,,,,,"{""railway"": ""signal"", ""railway:signal:direction"": ""backward"", ""ref"": ""C05 16""}"
208,,Clarendon,38.8867521,-77.0953933,,,stop,stop_position,,,,,,,,,"{""name"": ""Clarendon"", ""network"": ""Washington Metro"", ""operator"": ""Washington Metropolitan Area Transit Authority"", ""public_transport"": ""stop_position"", ""railway"": ""stop"", ""subway"": ""yes""}"
209,,Clarendon,38.8867788,-77.0954141,,,stop,stop_position,,,,,,,,,"{""name"": ""Clarendon"", ""network"": ""Washington Metro"", ""operator"": ""Washington Metropolitan Area Transit Authority"", ""public_transport"": ""stop_position"", ""railway"": ""stop"", ""subway"": ""yes""}"
210,,21st St N and N Pierce St,38.8989918,-77.0783193,bicycle_rental,,,,,,,,,,,,"{""amenity"": ""bicycle_rental"", ""bicycle_rental"": ""docking_station"", ""brand"": ""Capital Bikeshare"", ""brand:wikidata"": ""Q1034635"", ""capacity"": ""15"", ""dcgis:dataset"": ""CapitalBikeSharePt"", ""dcgis:gis_id"": ""243045336"", ""dcgis:pubdate"": ""2018-08-20"", ""fee"": ""yes"", ""name"": ""21st St N and N Pierce St"", ""network"": ""Capital Bikeshare"", ""network:wikidata"": ""Q1034635"", ""opening_hours"": ""24/7"", ""operator"": ""Lyft"", ""operator:type"": ""private"", ""operator:wikidata"": ""Q17077936"", ""source"": ""dcgis"", ""website"": ""https://www.capitalbikeshare.com/""}"
211,,Roosevelt Island,38.8965608,-77.0671423,bicycle_rental,,,,,,,,,,,,"{""amenity"": ""bicycle_rental"", ""bicycle_rental"": ""docking_station"", ""brand"": ""Capital Bikeshare"", ""brand:wikidata"": ""Q1034635"", ""capacity"": ""13"", ""dcgis:dataset"": ""CapitalBikeSharePt"", ""dcgis:gis_id"": ""243045293"", ""dcgis:pubdate"": ""2018-08-20"", ""fee"": ""yes"", ""name"": ""Roosevelt Island"", ""network"": ""Capital Bikeshare"", ""network:wikidata"": ""Q1034635"", ""opening_hours"": ""24/7"", ""operator"": ""Lyft"", ""operator:type"": ""private"", ""operator:wikidata"": ""Q17077936"", ""source"": ""dcgis"", ""website"": ""https://www.capitalbikeshare.com/""}"
212,,N Lynn St and Fairfax Dr,38.8937479,-77.0709152,bicycle_rental,,,,,,,,,,,,"{""amenity"": ""bicycle_rental"", ""bicycle_rental"": ""docking_station"", ""brand"": ""Capital Bikeshare"", ""brand:wikidata"": ""Q1034635"", ""capacity"": ""15"", ""dcgis:dataset"": ""CapitalBikeSharePt"", ""dcgis:gis_id"": ""243045590"", ""dcgis:pubdate"": ""2018-08-20"", ""fee"": ""yes"", ""name"": ""N Lynn St and Fairfax Dr"", ""network"": ""Capital Bikeshare"", ""network:wikidata"": ""Q1034635"", ""opening_hours"": ""24/7"", ""operator"": ""Lyft"", ""operator:type"": ""private"", ""operator:wikidata"": ""Q17077936"", ""source"": ""dcgis"", ""website"": ""https://www.capitalbikeshare.com/""}"
213,,Bethesda Bagels,38.8966756,-77.0712617,fast_food,,,,,,,,,North Moore Street,1851,Arlington,"{""addr:city"": ""Arlington"", ""addr:housenumber"": ""1851"", ""addr:postcode"": ""22209"", ""addr:state"": ""VA"", ""addr:street"": ""North Moore Street"", ""amenity"": ""fast_food"", ""brand"": ""Bethesda Bagels"", ""brand:wikidata"": ""Q132165963"", ""check_date"": ""2023-06-15"", ""name"": ""Bethesda Bagels"", ""opening_hours"": ""07:00-14:00"", ""website"": ""https://www.bethesdabagels.com""}"
214,,Enterprise,38.8939617,-77.076425,car_rental,,,,,,,,,,,,"{""amenity"": ""car_rental"", ""brand"": ""Enterprise"", ""brand:wikidata"": ""Q17085454"", ""name"": ""Enterprise"", ""official_name"": ""Enterprise Rent-A-Car""}"
215,,Orange Line Living,38.8941463,-77.0769313,,,,,,estate_agent,,,,,,,"{""name"": ""Orange Line Living"", ""phone"": ""+1 703-996-8056"", ""shop"": ""estate_agent"", ""website"": ""http://www.livetheorangeline.com/""}"
216,,Rosslyn Metro Bay A,38.8967426,-77.0715997,,,,platform,,,,,,,,,"{""bus"": ""yes"", ""highway"": ""bus_stop"", ""local_ref"": ""A"", ""name"": ""Rosslyn Metro Bay A"", ""operator"": ""ART;Metrobus"", ""public_transport"": ""platform"", ""ref"": ""6001027"", ""ref:art"": ""61002"", ""route_ref"": ""Metrobus Shuttle"", ""shelter"": ""yes""}"
217,,Rosslyn Metro Bay B,38.8961381,-77.0716269,,,,platform,,,,,,,,,"{""bus"": ""yes"", ""highway"": ""bus_stop"", ""local_ref"": ""B"", ""name"": ""Rosslyn Metro Bay B"", ""network"": ""WMATA Metrobus"", ""network:wikidata"": ""Q6824810"", ""network:wikipedia"": ""en:Metrobus (Washington, D.C.)"", ""operator"": ""Washington Metropolitan Area Transit Authority"", ""operator:short"": ""WMATA"", ""operator:wikidata"": ""Q7972051"", ""operator:wikipedia"": ""en:Washington Metropolitan Area Transit Authority"", ""public_transport"": ""platform"", ""ref:wmata"": ""6000827""}"
218,,Rosslyn Metro Bay E,38.8955191,-77.0716025,,,,platform,,,,,,,,,"{""bus"": ""yes"", ""highway"": ""bus_stop"", ""local_ref"": ""E"", ""name"": ""Rosslyn Metro Bay E"", ""network"": ""WMATA Metrobus"", ""network:wikidata"": ""Q6824810"", ""operator"": ""Washington Metropolitan Area Transit Authority"", ""operator:short"": ""WMATA"", ""operator:wikidata"": ""Q7972051"", ""public_transport"": ""platform"", ""ref"": ""6001348"", ""route_ref"": ""38B""}"
219,,Rosslyn Metro Bay D,38.8957024,-77.071609,,,,platform,,,,,,,,,"{""bus"": ""yes"", ""highway"": ""bus_stop"", ""local_ref"": ""D"", ""name"": ""Rosslyn Metro Bay D"", ""network"": ""WMATA Metrobus"", ""network:wikidata"": ""Q6824810"", ""network:wikipedia"": ""en:Metrobus (Washington, D.C.)"", ""operator"": ""Washington Metropolitan Area Transit Authority"", ""operator:short"": ""WMATA"", ""operator:wikidata"": ""Q7972051"", ""operator:wikipedia"": ""en:Washington Metropolitan Area Transit Authority"", ""public_transport"": ""platform"", ""ref:wmata"": ""6000827"", ""route_ref"": ""4A;4B""}"
220,,Wilson Blvd at Fort Myer Dr,38.8947636,-77.0725475,,,,platform,,,,,,,,,"{""bench"": ""no"", ""bin"": ""no"", ""bus"": ""yes"", ""departures_board"": ""timetable"", ""highway"": ""bus_stop"", ""name"": ""Wilson Blvd at Fort Myer Dr"", ""public_transport"": ""platform"", ""ref"": ""6001358"", ""ref:wmata"": ""6001358"", ""shelter"": ""no"", ""website"": ""https://www.arlingtontransit.com/realtime/all/6001358""}"
221,,Wilson Blvd at N Moore St,38.8951322,-77.0718147,,,,platform,,,,,,,,,"{""bus"": ""yes"", ""departures_board"": ""timetable"", ""highway"": ""bus_stop"", ""name"": ""Wilson Blvd at N Moore St"", ""network"": ""Arlington Transit"", ""network:short"": ""ART"", ""network:wikidata"": ""Q4792406"", ""not:network:wikidata"": ""Q4750893"", ""operator"": ""First Transit"", ""operator:wikidata"": ""Q5453919"", ""public_transport"": ""platform"", ""ref"": ""15118"", ""shelter"": ""no"", ""website"": ""https://www.arlingtontransit.com/realtime/all/6001357""}"
222,,Wilson Blvd & Oak St,38.894838,-77.0742138,,,,platform,,,,,,,,,"{""bench"": ""yes"", ""bus"": ""yes"", ""departures_board"": ""timetable"", ""highway"": ""bus_stop"", ""name"": ""Wilson Blvd & Oak St"", ""network"": ""WMATA Metrobus"", ""network:wikidata"": ""Q6824810"", ""operator"": ""Washington Metropolitan Area Transit Authority"", ""operator:short"": ""WMATA"", ""operator:wikidata"": ""Q7972051"", ""public_transport"": ""platform"", ""shelter"": ""no"", ""website"": ""https://www.arlingtontransit.com/realtime/all/6000702""}"
223,,Wilson Blvd at N Pierce St,38.894374,-77.0770342,,,,platform,,,,,,,,,"{""bench"": ""yes"", ""bin"": ""yes"", ""bus"": ""yes"", ""highway"": ""bus_stop"", ""lit"": ""yes"", ""name"": ""Wilson Blvd at N Pierce St"", ""operator"": ""WMATA;ART"", ""public_transport"": ""platform"", ""ref"": ""45023"", ""shelter"": ""yes"", ""tactile_paving"": ""no"", ""website"": ""https://www.arlingtontransit.com/realtime/all/6001386""}"
224,,Rosslyn Metro Bay H,38.895311,-77.0723957,,,,platform,,,,,,,,,"{""bus"": ""yes"", ""highway"": ""bus_stop"", ""local_ref"": ""H"", ""name"": ""Rosslyn Metro Bay H"", ""operator"": ""Metrobus"", ""public_transport"": ""platform"", ""shelter"": ""no"", ""website"": ""https://www.arlingtontransit.com/realtime/all/6001310""}"
225,,Clarendon Blvd at N Rhodes St,38.8927493,-77.0795574,,,,platform,,,,,,,,,"{""bench"": ""yes"", ""bin"": ""yes"", ""bus"": ""yes"", ""highway"": ""bus_stop"", ""lit"": ""yes"", ""name"": ""Clarendon Blvd at N Rhodes St"", ""network"": ""WMATA;ART"", ""operator"": ""WMATA;ART"", ""public_transport"": ""platform"", ""ref:art"": ""45022"", ""ref:wmata"": ""6000677"", ""shelter"": ""yes"", ""tactile_paving"": ""no"", ""website"": ""https://www.arlingtontransit.com/realtime/all/6000677""}"
226,,,38.8954311,-77.0665617,drinking_water,,,,,,,,,,,,"{""amenity"": ""drinking_water"", ""drinking_water:seasonal"": ""yes""}"
227,,Georgetown Ferry Landing,38.9014547,-77.0610507,ferry_terminal,,,station,,,,,,,,,"{""amenity"": ""ferry_terminal"", ""ferry"": ""yes"", ""name"": ""Georgetown Ferry Landing"", ""public_transport"": ""station""}"
228,,14th St N at N Meade St,38.8902564,-77.0716587,,,,platform,,,,,,,,,"{""bus"": ""yes"", ""highway"": ""bus_stop"", ""name"": ""14th St N at N Meade St"", ""network"": ""Arlington Transit"", ""network:short"": ""ART"", ""network:wikidata"": ""Q4792406"", ""not:network:wikidata"": ""Q4750893"", ""operator"": ""First Transit"", ""operator:wikidata"": ""Q5453919"", ""public_transport"": ""platform"", ""ref"": ""61003"", ""shelter"": ""no"", ""website"": ""https://www.arlingtontransit.com/realtime/all/6000992""}"
229,,N Oak St at 14th St N,38.8893229,-77.0734472,,,,platform,,,,,,,,,"{""bus"": ""yes"", ""highway"": ""bus_stop"", ""name"": ""N Oak St at 14th St N"", ""network"": ""Arlington Transit"", ""network:short"": ""ART"", ""network:wikidata"": ""Q4792406"", ""not:network:wikidata"": ""Q4750893"", ""operator"": ""First Transit"", ""operator:wikidata"": ""Q5453919"", ""public_transport"": ""platform"", ""ref"": ""61004"", ""shelter"": ""no"", ""website"": ""https://www.arlingtontransit.com/realtime/all/6000993""}"
230,,12th St N at Fort Myer Dr,38.8880833,-77.0753331,,,,platform,,,,,,,,,"{""bus"": ""yes"", ""highway"": ""bus_stop"", ""name"": ""12th St N at Fort Myer Dr"", ""network"": ""Arlington Transit"", ""network:wikidata"": ""Q4792406"", ""not:network:wikidata"": ""Q4750893"", ""operator"": ""ART"", ""public_transport"": ""platform"", ""ref"": ""61005"", ""shelter"": ""no"", ""website"": ""https://www.arlingtontransit.com/realtime/all/6000994""}"
231,,N Queen St at 12th St N,38.8876974,-77.0766592,,,,platform,,,,,,,,,"{""bus"": ""yes"", ""highway"": ""bus_stop"", ""name"": ""N Queen St at 12th St N"", ""network"": ""Arlington Transit"", ""network:wikidata"": ""Q4792406"", ""not:network:wikidata"": ""Q4750893"", ""operator"": ""ART"", ""public_transport"": ""platform"", ""ref"": ""61006"", ""shelter"": ""no"", ""website"": ""https://www.arlingtontransit.com/realtime/all/6001010""}"
232,,N Queen St at Rt 50 Access Rd,38.8894932,-77.0774541,,,,platform,,,,,,,,,"{""bus"": ""yes"", ""highway"": ""bus_stop"", ""name"": ""N Queen St at Rt 50 Access Rd"", ""network"": ""Arlington Transit"", ""network:wikidata"": ""Q4792406"", ""not:network:wikidata"": ""Q4750893"", ""operator"": ""ART"", ""public_transport"": ""platform"", ""ref"": ""61007"", ""shelter"": ""no"", ""website"": ""https://www.arlingtontransit.com/realtime/all/6000996""}"
233,,N Rhodes St at 14th St N,38.8903053,-77.0789687,,,,platform,,,,,,,,,"{""bus"": ""yes"", ""highway"": ""bus_stop"", ""name"": ""N Rhodes St at 14th St N"", ""network"": ""Arlington Transit"", ""network:wikidata"": ""Q4792406"", ""not:network:wikidata"": ""Q4750893"", ""operator"": ""ART"", ""public_transport"": ""platform"", ""ref"": ""61008"", ""website"": ""https://www.arlingtontransit.com/realtime/all/6000982""}"
234,,N Rhodes St at 16th St N,38.8917036,-77.0791385,,,,platform,,,,,,,,,"{""bus"": ""yes"", ""highway"": ""bus_stop"", ""name"": ""N Rhodes St at 16th St N"", ""network"": ""Arlington Transit"", ""network:wikidata"": ""Q4792406"", ""public_transport"": ""platform"", ""ref"": ""61009"", ""shelter"": ""no"", ""website"": ""https://www.arlingtontransit.com/realtime/all/6000998""}"
235,,N Rhodes St at 16th St N,38.8916859,-77.0793188,,,,platform,,,,,,,,,"{""bus"": ""yes"", ""highway"": ""bus_stop"", ""name"": ""N Rhodes St at 16th St N"", ""network"": ""Arlington Transit"", ""network:wikidata"": ""Q4792406"", ""public_transport"": ""platform"", ""ref"": ""61109"", ""shelter"": ""no"", ""website"": ""https://www.arlingtontransit.com/realtime/all/6000995""}"
236,,N Rhodes St at 14th St N,38.8902249,-77.0790992,,,,platform,,,,,,,,,"{""bus"": ""yes"", ""highway"": ""bus_stop"", ""name"": ""N Rhodes St at 14th St N"", ""network"": ""Arlington Transit"", ""network:wikidata"": ""Q4792406"", ""not:network:wikidata"": ""Q4750893"", ""operator"": ""ART"", ""public_transport"": ""platform"", ""ref"": ""61110"", ""shelter"": ""no"", ""website"": ""https://www.arlingtontransit.com/realtime/all/6000964""}"
237,,N Queen St at Rt 50 Access Rd,38.8893702,-77.0775404,,,,platform,,,,,,,,,"{""bus"": ""yes"", ""highway"": ""bus_stop"", ""name"": ""N Queen St at Rt 50 Access Rd"", ""network"": ""Arlington Transit"", ""network:wikidata"": ""Q4792406"", ""not:network:wikidata"": ""Q4750893"", ""operator"": ""ART"", ""public_transport"": ""platform"", ""ref"": ""61111"", ""shelter"": ""no"", ""website"": ""https://www.arlingtontransit.com/realtime/all/6000963""}"
238,,N Queen St at 12th St N,38.8877157,-77.0768134,,,,platform,,,,,,,,,"{""bus"": ""yes"", ""highway"": ""bus_stop"", ""name"": ""N Queen St at 12th St N"", ""network"": ""Arlington Transit"", ""network:wikidata"": ""Q4792406"", ""not:network:wikidata"": ""Q4750893"", ""operator"": ""ART"", ""public_transport"": ""platform"", ""ref"": ""61112"", ""shelter"": ""no"", ""website"": ""https://www.arlingtontransit.com/realtime/all/6000962""}"
239,,12th St N at Fort Myer Dr,38.8880531,-77.0746412,,,,platform,,,,,,,,,"{""bus"": ""yes"", ""highway"": ""bus_stop"", ""name"": ""12th St N at Fort Myer Dr"", ""network"": ""Arlington Transit"", ""network:wikidata"": ""Q4792406"", ""not:network:wikidata"": ""Q4750893"", ""operator"": ""ART"", ""public_transport"": ""platform"", ""ref"": ""61113"", ""shelter"": ""no"", ""website"": ""https://www.arlingtontransit.com/realtime/all/6000961""}"
240,,N Oak St at 14th St N,38.8895342,-77.0733394,,,,platform,,,,,,,,,"{""bus"": ""yes"", ""highway"": ""bus_stop"", ""name"": ""N Oak St at 14th St N"", ""network"": ""Arlington Transit"", ""network:short"": ""ART"", ""network:wikidata"": ""Q4792406"", ""not:network:wikidata"": ""Q4750893"", ""operator"": ""First Transit"", ""operator:wikidata"": ""Q5453919"", ""public_transport"": ""platform"", ""ref"": ""61114"", ""shelter"": ""no"", ""website"": ""https://www.arlingtontransit.com/realtime/all/6000960""}"
241,,14th St N at N Meade St,38.8901529,-77.0716949,,,,platform,,,,,,,,,"{""bus"": ""yes"", ""highway"": ""bus_stop"", ""name"": ""14th St N at N Meade St"", ""network"": ""Arlington Transit"", ""network:short"": ""ART"", ""network:wikidata"": ""Q4792406"", ""not:network:wikidata"": ""Q4750893"", ""operator"": ""First Transit"", ""operator:wikidata"": ""Q5453919"", ""public_transport"": ""platform"", ""ref"": ""61115"", ""shelter"": ""no"", ""website"": ""https://www.arlingtontransit.com/realtime/all/6000959""}"
242,,,38.8950754,-77.0757043,parking_entrance,,,,,,,,,,,,"{""amenity"": ""parking_entrance""}"
243,,Langston Blvd at N Nash St,38.8991408,-77.0728255,,,,platform,,,,,,,,,"{""bench"": ""no"", ""bin"": ""no"", ""bus"": ""yes"", ""highway"": ""bus_stop"", ""name"": ""Langston Blvd at N Nash St"", ""network"": ""Arlington Transit"", ""network:short"": ""ART"", ""network:wikidata"": ""Q4792406"", ""not:network:wikidata"": ""Q4750893"", ""operator"": ""First Transit"", ""operator:wikidata"": ""Q5453919"", ""public_transport"": ""platform"", ""ref"": ""15069"", ""shelter"": ""no"", ""website"": ""https://www.arlingtontransit.com/realtime/all/6000758""}"
244,,Langston Blvd at N Oak St,38.8991019,-77.0750909,,,,platform,,,,,,,,,"{""bench"": ""no"", ""bin"": ""no"", ""bus"": ""yes"", ""highway"": ""bus_stop"", ""name"": ""Langston Blvd at N Oak St"", ""network"": ""Arlington Transit"", ""network:wikidata"": ""Q4792406"", ""public_transport"": ""platform"", ""ref"": ""15070"", ""shelter"": ""no"", ""website"": ""https://www.arlingtontransit.com/realtime/all/6000757""}"
245,,Langston Blvd at N Scott St,38.8975446,-77.08045,,,,platform,,,,,,,,,"{""bench"": ""no"", ""bin"": ""no"", ""bus"": ""yes"", ""highway"": ""bus_stop"", ""name"": ""Langston Blvd at N Scott St"", ""network"": ""Arlington Transit"", ""network:wikidata"": ""Q4792406"", ""not:network:wikidata"": ""Q4750893"", ""operator"": ""ART"", ""public_transport"": ""platform"", ""ref:art"": ""15071"", ""ref:wmata"": ""6000746"", ""shelter"": ""no"", ""website"": ""https://www.arlingtontransit.com/realtime/all/6000746""}"
246,,Langston Blvd at N Quinn St,38.8978168,-77.0782557,,,,platform,,,,,,,,,"{""bench"": ""no"", ""bin"": ""no"", ""bus"": ""yes"", ""highway"": ""bus_stop"", ""name"": ""Langston Blvd at N Quinn St"", ""network"": ""Arlington Transit"", ""network:wikidata"": ""Q4792406"", ""public_transport"": ""platform"", ""ref:art"": ""15067"", ""ref:wmata"": ""6000749"", ""shelter"": ""no"", ""website"": ""https://www.arlingtontransit.com/realtime/all/6000749""}"
247,,,38.8972564,-77.078723,parking_entrance,,,,,,,,,,,,"{""amenity"": ""parking_entrance""}"
248,,,38.89631,-77.079129,parking_entrance,,,,,,,,,,,,"{""amenity"": ""parking_entrance""}"
249,,,38.8959948,-77.0801802,parking_entrance,,,,,,,,,,,,"{""amenity"": ""parking_entrance""}"
250,,,38.8960779,-77.0799755,parking_entrance,,,,,,,,,,,,"{""amenity"": ""parking_entrance""}"
251,,Langston Blvd at Ft Myer Dr,38.8980892,-77.0716778,,,,platform,,,,,,,,,"{""bench"": ""no"", ""bin"": ""no"", ""bus"": ""yes"", ""highway"": ""bus_stop"", ""name"": ""Langston Blvd at Ft Myer Dr"", ""network"": ""Arlington Transit"", ""network:short"": ""ART"", ""network:wikidata"": ""Q4792406"", ""not:network:wikidata"": ""Q4750893"", ""operator"": ""First Transit"", ""operator:wikidata"": ""Q5453919"", ""public_transport"": ""platform"", ""ref:wmata"": ""6000754"", ""shelter"": ""no"", ""website"": ""https://www.arlingtontransit.com/realtime/all/6000754""}"
252,,Wilson Blvd at N Quinn St,38.8939505,-77.078764,,,,platform,,,,,,,,,"{""bus"": ""yes"", ""highway"": ""bus_stop"", ""name"": ""Wilson Blvd at N Quinn St"", ""network"": ""WMATA Metrobus"", ""network:wikidata"": ""Q6824810"", ""network:wikipedia"": ""en:Metrobus (Washington, D.C.)"", ""operator"": ""Washington Metropolitan Area Transit Authority"", ""operator:short"": ""WMATA"", ""operator:wikidata"": ""Q7972051"", ""operator:wikipedia"": ""en:Washington Metropolitan Area Transit Authority"", ""public_transport"": ""platform"", ""ref:wmata"": ""6001386""}"
253,,Arlington Blvd & N Rolfe St,38.8886208,-77.0786459,,,,platform,,,,,,,,,"{""bus"": ""yes"", ""highway"": ""bus_stop"", ""name"": ""Arlington Blvd & N Rolfe St"", ""network"": ""WMATA Metrobus"", ""network:wikidata"": ""Q6824810"", ""operator"": ""Washington Metropolitan Area Transit Authority"", ""operator:short"": ""WMATA"", ""operator:wikidata"": ""Q7972051"", ""public_transport"": ""platform"", ""ref:wmata"": ""6000630"", ""shelter"": ""yes"", ""website"": ""https://www.arlingtontransit.com/realtime/all/6000630""}"
254,,Arlington Blvd & N Nash St,38.8916542,-77.0727849,,,,platform,,,,,,,,,"{""bus"": ""yes"", ""highway"": ""bus_stop"", ""name"": ""Arlington Blvd & N Nash St"", ""network"": ""WMATA Metrobus"", ""network:wikidata"": ""Q6824810"", ""operator"": ""Washington Metropolitan Area Transit Authority"", ""operator:short"": ""WMATA"", ""operator:wikidata"": ""Q7972051"", ""public_transport"": ""platform"", ""ref:wmata"": ""6000665"", ""shelter"": ""yes"", ""website"": ""https://www.arlingtontransit.com/realtime/all/6000665""}"
255,,Arlington Blvd & N Meade St,38.8913477,-77.0719757,,,,platform,,,,,,,,,"{""bus"": ""yes"", ""highway"": ""bus_stop"", ""name"": ""Arlington Blvd & N Meade St"", ""network"": ""WMATA Metrobus"", ""network:wikidata"": ""Q6824810"", ""operator"": ""Washington Metropolitan Area Transit Authority"", ""operator:short"": ""WMATA"", ""operator:wikidata"": ""Q7972051"", ""public_transport"": ""platform"", ""ref:wmata"": ""6000655"", ""shelter"": ""yes"", ""website"": ""https://www.arlingtontransit.com/realtime/all/6000655""}"
256,,Legacy Home Comfort,38.8908197,-77.0778968,,,,,,,,,,,,,"{""craft"": ""hvac"", ""name"": ""Legacy Home Comfort"", ""opening_hours"": ""24/7"", ""phone"": ""+1 703-505-0148"", ""website"": ""https://www.legacyhomecomfort.com/""}"
257,,,38.8946078,-77.0785037,,,,,,,,,,North Quinn Street,1724,,"{""addr:housenumber"": ""1724"", ""addr:street"": ""North Quinn Street""}"
258,,,38.8943572,-77.0784562,,,,,,,,,,North Quinn Street,1720,,"{""addr:housenumber"": ""1720"", ""addr:street"": ""North Quinn Street""}"
259,,,38.8954475,-77.0786562,parking_entrance,,,,,,,,,,,,"{""amenity"": ""parking_entrance""}"
260,,,38.8903552,-77.0793461,parking,,,,,,,,,,,,"{""access"": ""private"", ""amenity"": ""parking"", ""layer"": ""-1"", ""parking"": ""underground""}"
261,,,38.8902604,-77.0793347,parking,,,,,,,,,,,,"{""access"": ""private"", ""amenity"": ""parking"", ""layer"": ""-1"", ""parking"": ""underground""}"
262,,,38.891293,-77.0797193,parking,,,,,,,,,,,,"{""access"": ""private"", ""amenity"": ""parking"", ""layer"": ""-1"", ""parking"": ""underground""}"
263,,,38.8931616,-77.0763446,parking_entrance,,,,,,,,,,,,"{""amenity"": ""parking_entrance"", ""parking"": ""underground""}"
264,,,38.8994696,-77.0755252,parking_entrance,,,,,,,,,,,,"{""amenity"": ""parking_entrance""}"
265,,,38.897863,-77.0773734,parking,,,,,,,,,,,,"{""amenity"": ""parking"", ""layer"": ""-1"", ""parking"": ""underground""}"
266,,,38.8977051,-77.0737098,parking,,,,,,,,,,,,"{""access"": ""private"", ""amenity"": ""parking"", ""layer"": ""-1"", ""parking"": ""underground""}"
267,,FlixBus Rosslyn,38.8968534,-77.0707261,,,,platform,,,,,,,,,"{""brand"": ""FlixBus"", ""brand:wikidata"": ""Q15712258"", ""bus"": ""yes"", ""highway"": ""bus_stop"", ""name"": ""FlixBus Rosslyn"", ""public_transport"": ""platform""}"
268,,FlixBus Rosslyn,38.8968448,-77.0708559,,,,stop_position,,,,,,,,,"{""bus"": ""yes"", ""name"": ""FlixBus Rosslyn"", ""public_transport"": ""stop_position""}"
269,,,38.8957269,-77.0752404,parking_entrance,,,,,,,,,,,,"{""amenity"": ""parking_entrance""}"
270,,,38.8948024,-77.0750295,parking_entrance,,,,,,,,,,,,"{""amenity"": ""parking_entrance""}"
271,,,38.8928809,-77.0783371,parking_entrance,,,,,,,,,,,,"{""amenity"": ""parking_entrance""}"
272,,,38.8925522,-77.0782825,parking_entrance,,,,,,,,,,,,"{""amenity"": ""parking_entrance""}"
273,,,38.8926102,-77.0774927,parking_entrance,,,,,,,,,,,,"{""amenity"": ""parking_entrance""}"
274,,,38.8929316,-77.0775403,parking_entrance,,,,,,,,,,,,"{""amenity"": ""parking_entrance""}"
275,,,38.8920987,-77.0780892,parking_entrance,,,,,,,,,,,,"{""amenity"": ""parking_entrance""}"
276,,,38.8921376,-77.0776103,parking_entrance,,,,,,,,,,,,"{""amenity"": ""parking_entrance""}"
277,,,38.8922174,-77.0766685,parking_entrance,,,,,,,,,,,,"{""amenity"": ""parking_entrance""}"
278,,,38.8929422,-77.0771945,parking_entrance,,,,,,,,,,,,"{""amenity"": ""parking_entrance""}"
279,,,38.8907769,-77.0788707,parking_entrance,,,,,,,,,,,,"{""amenity"": ""parking_entrance""}"
280,,,38.8915982,-77.0761346,parking_entrance,,,,,,,,,,,,"{""amenity"": ""parking_entrance""}"
281,,,38.8923895,-77.0745919,parking_entrance,,,,,,,,,,,,"{""amenity"": ""parking_entrance""}"
282,,,38.8924243,-77.0735036,parking_entrance,,,,,,,,,,,,"{""amenity"": ""parking_entrance""}"
283,,,38.8923986,-77.073837,parking_entrance,,,,,,,,,,,,"{""amenity"": ""parking_entrance""}"
284,,,38.892124,-77.0740776,parking_entrance,,,,,,,,,,,,"{""amenity"": ""parking_entrance""}"
285,,,38.893964,-77.0723232,parking_entrance,,,,,,,,,,,,"{""amenity"": ""parking_entrance""}"
286,,,38.89339,-77.0721293,parking_entrance,,,,,,,,,,,,"{""amenity"": ""parking_entrance""}"
287,,,38.8934915,-77.0721519,parking_entrance,,,,,,,,,,,,"{""amenity"": ""parking_entrance""}"
288,,,38.8939035,-77.0722552,parking_entrance,,,,,,,,,,,,"{""amenity"": ""parking_entrance""}"
289,,,38.8926296,-77.0728009,parking_entrance,,,,,,,,,,,,"{""amenity"": ""parking_entrance""}"
290,,,38.8941261,-77.0732613,parking_entrance,,,,,,,,,,,,"{""amenity"": ""parking_entrance""}"
291,,,38.8941431,-77.0724189,parking_entrance,,,,,,,,,,,,"{""amenity"": ""parking_entrance""}"
292,,,38.8941961,-77.0723496,parking_entrance,,,,,,,,,,,,"{""amenity"": ""parking_entrance""}"
293,,,38.8938339,-77.0712248,parking_entrance,,,,,,,,,,,,"{""amenity"": ""parking_entrance""}"
294,,,38.8945358,-77.0710435,parking_entrance,,,,,,,,,,,,"{""amenity"": ""parking_entrance""}"
295,,,38.8948274,-77.0710398,parking_entrance,,,,,,,,,,,,"{""amenity"": ""parking_entrance""}"
296,,,38.8915185,-77.0690108,parking_entrance,,,,,,,,,,,,"{""amenity"": ""parking_entrance""}"
297,,,38.8913266,-77.0687631,parking_entrance,,,,,,,,,,,,"{""amenity"": ""parking_entrance""}"
298,,,38.8916498,-77.0683919,parking_entrance,,,,,,,,,,,,"{""amenity"": ""parking_entrance""}"
299,,,38.8938356,-77.0694797,parking_entrance,,,,,,,,,,,,"{""amenity"": ""parking_entrance""}"
300,,,38.8934067,-77.0687818,parking_entrance,,,,,,,,,,,,"{""amenity"": ""parking_entrance""}"
301,,Farragut West,38.9013805,-77.040415,,,stop,stop_position,,,,,,,,,"{""name"": ""Farragut West"", ""network"": ""Washington Metro"", ""operator"": ""Washington Metropolitan Area Transit Authority"", ""public_transport"": ""stop_position"", ""railway"": ""stop"", ""subway"": ""yes""}"
302,,Farragut West,38.9013506,-77.0404123,,,stop,stop_position,,,,,,,,,"{""name"": ""Farragut West"", ""network"": ""Washington Metro"", ""operator"": ""Washington Metropolitan Area Transit Authority"", ""public_transport"": ""stop_position"", ""railway"": ""stop"", ""subway"": ""yes""}"
303,,Foggy Bottom–GWU,38.9007174,-77.05037,,,stop,stop_position,,,,,,,,,"{""name"": ""Foggy Bottom–GWU"", ""network"": ""Washington Metro"", ""operator"": ""Washington Metropolitan Area Transit Authority"", ""public_transport"": ""stop_position"", ""railway"": ""stop"", ""subway"": ""yes""}"
304,,Foggy Bottom–GWU,38.9007512,-77.0503646,,,stop,stop_position,,,,,,,,,"{""name"": ""Foggy Bottom–GWU"", ""network"": ""Washington Metro"", ""operator"": ""Washington Metropolitan Area Transit Authority"", ""public_transport"": ""stop_position"", ""railway"": ""stop"", ""subway"": ""yes""}"
305,,Rosslyn,38.8960681,-77.0708958,,,stop,stop_position,,,,,,,,,"{""name"": ""Rosslyn"", ""network"": ""Washington Metro"", ""operator"": ""Washington Metropolitan Area Transit Authority"", ""public_transport"": ""stop_position"", ""railway"": ""stop"", ""subway"": ""yes""}"
306,,Rosslyn,38.8960661,-77.0709433,,,stop,stop_position,,,,,,,,,"{""name"": ""Rosslyn"", ""network"": ""Washington Metro"", ""operator"": ""Washington Metropolitan Area Transit Authority"", ""public_transport"": ""stop_position"", ""railway"": ""stop"", ""subway"": ""yes""}"
307,,McPherson Square,38.9013805,-77.0320955,,,stop,stop_position,,,,,,,,,"{""name"": ""McPherson Square"", ""network"": ""Washington Metro"", ""operator"": ""Washington Metropolitan Area Transit Authority"", ""public_transport"": ""stop_position"", ""railway"": ""stop"", ""subway"": ""yes""}"
308,,,38.9013806,-77.0372003,,,switch,,,,,,,,,,"{""railway"": ""switch""}"
309,,,38.8859302,-77.0639602,,,signal,,,,,,,,,,"{""railway"": ""signal"", ""railway:signal:direction"": ""forward"", ""ref"": ""C06 08""}"
310,,,38.885947,-77.0639124,,,signal,,,,,,,,,,"{""railway"": ""signal"", ""railway:signal:direction"": ""backward"", ""ref"": ""C06 04""}"
311,,,38.8854572,-77.0636647,,,signal,,,,,,,,,,"{""railway"": ""signal"", ""railway:signal:direction"": ""backward"", ""ref"": ""C06 06""}"
312,,,38.8854768,-77.0636215,,,signal,,,,,,,,,,"{""railway"": ""signal"", ""railway:signal:direction"": ""forward"", ""ref"": ""C06 02""}"
313,,,38.8942304,-77.0708688,,,signal,,,,,,,,,,"{""railway"": ""signal"", ""railway:signal:direction"": ""backward"", ""ref"": ""C05 08""}"
314,,,38.8947055,-77.0708498,,,signal,,,,,,,,,,"{""railway"": ""signal"", ""railway:signal:direction"": ""backward"", ""ref"": ""C05 02""}"
315,,,38.894704,-77.0708946,,,signal,,,,,,,,,,"{""railway"": ""signal"", ""railway:signal:direction"": ""forward"", ""ref"": ""C05 06""}"
316,,SecureStrux,38.897301,-77.0691226,,,,,,,,company,,19th Street North,1001,Arlington,"{""addr:city"": ""Arlington"", ""addr:housenumber"": ""1001"", ""addr:postcode"": ""22209"", ""addr:state"": ""VA"", ""addr:street"": ""19th Street North"", ""addr:unit"": ""1200"", ""name"": ""SecureStrux"", ""office"": ""company"", ""phone"": ""+1 703-436-1061"", ""website"": ""https://securestrux.com/""}"
317,,Fort Myer Dr and Arlington Blvd,38.8908871,-77.0748545,bicycle_rental,,,,,,,,,,,,"{""amenity"": ""bicycle_rental"", ""bicycle_rental"": ""docking_station"", ""brand"": ""Capital Bikeshare"", ""brand:wikidata"": ""Q1034635"", ""capacity"": ""15"", ""fee"": ""yes"", ""name"": ""Fort Myer Dr and Arlington Blvd"", ""network"": ""Capital Bikeshare"", ""network:wikidata"": ""Q1034635"", ""opening_hours"": ""24/7"", ""operator"": ""Lyft"", ""operator:type"": ""private"", ""operator:wikidata"": ""Q17077936"", ""website"": ""https://www.capitalbikeshare.com/""}"
318,,Wilson Blvd and N Oak St,38.8951714,-77.0739503,bicycle_rental,,,,,,,,,,,,"{""amenity"": ""bicycle_rental"", ""bicycle_rental"": ""docking_station"", ""brand"": ""Capital Bikeshare"", ""brand:wikidata"": ""Q1034635"", ""capacity"": ""17"", ""fee"": ""yes"", ""name"": ""Wilson Blvd and N Oak St"", ""network"": ""Capital Bikeshare"", ""network:wikidata"": ""Q1034635"", ""opening_hours"": ""24/7"", ""operator"": ""Lyft"", ""operator:type"": ""private"", ""operator:wikidata"": ""Q17077936"", ""website"": ""https://www.capitalbikeshare.com/""}"
319,,USMC War Memorial & Netherlands Carillion,38.8881716,-77.0678697,,information,,,,,,,,,,,"{""board_type"": ""welcome_sign"", ""direction"": ""135"", ""information"": ""board"", ""name"": ""USMC War Memorial & Netherlands Carillion"", ""tourism"": ""information""}"
320,,Open Road,38.8957288,-77.0711236,restaurant,,,,,,,,,,,,"{""amenity"": ""restaurant"", ""cuisine"": ""american"", ""name"": ""Open Road"", ""opening_hours"": ""Mo-Su 11:00-21:00"", ""phone"": ""+1 703-248-0760"", ""website"": ""https://www.openroadgrill.com""}"
321,,Henry Gate,38.8815325,-77.0839263,,,,,,,,,,,,,"{""access"": ""no"", ""barrier"": ""gate"", ""foot"": ""permit"", ""name"": ""Henry Gate"", ""opening_hours"": ""24/7"", ""website"": ""https://home.army.mil/jbmhh/my-fort/all-services/access-gate-info""}"
322,,Orangetheory Fitness,38.8939031,-77.0782588,,,,,,,fitness_centre,,,Wilson Boulevard,1776,Arlington,"{""addr:city"": ""Arlington"", ""addr:country"": ""US"", ""addr:housenumber"": ""1776"", ""addr:postcode"": ""22209"", ""addr:state"": ""VA"", ""addr:street"": ""Wilson Boulevard"", ""brand"": ""Orangetheory Fitness"", ""brand:wikidata"": ""Q25005163"", ""leisure"": ""fitness_centre"", ""name"": ""Orangetheory Fitness"", ""phone"": ""+1 571-431-6140"", ""ref"": ""1464""}"
323,,,38.8956147,-77.0664893,,information,,,,,,,,,,,"{""board_type"": ""history"", ""information"": ""board"", ""operator"": ""NPS"", ""tourism"": ""information""}"
324,,Wright Gate Checkpoint,38.8876402,-77.0721724,,,,,,,,,,,,,"{""barrier"": ""lift_gate"", ""military"": ""checkpoint"", ""name"": ""Wright Gate Checkpoint"", ""opening_hours"": ""Mo-Su 05:00-23:00"", ""website"": ""https://home.army.mil/jbmhh/my-fort/all-services/access-gate-info""}"
325,,Wright Gate Pedestrian Checkpoint,38.8876824,-77.0721853,,,,,,,,,,,,,"{""barrier"": ""lift_gate"", ""military"": ""checkpoint"", ""name"": ""Wright Gate Pedestrian Checkpoint"", ""opening_hours"": ""Mo-Su 05:00-23:00"", ""website"": ""https://home.army.mil/jbmhh/my-fort/all-services/access-gate-info""}"
326,,NGS-Whipple,38.8853758,-77.0772399,,,,,,,,,,,,,"{""man_made"": ""survey_point"", ""name"": ""NGS-Whipple"", ""ref"": ""HV9065"", ""website"": ""https://www.ngs.noaa.gov/cgi-bin/ds_mark.prl?PidBox=HV9065""}"
327,,Hatfield Gate,38.8722756,-77.0797147,,,,,,,,,,,,,"{""barrier"": ""gate"", ""name"": ""Hatfield Gate"", ""opening_hours"": ""24/7"", ""website"": ""https://home.army.mil/jbmhh/my-fort/all-services/access-gate-info"", ""wheelchair"": ""yes""}"
328,,,38.8947011,-77.0762891,bicycle_parking,,,,,,,,,,,,"{""amenity"": ""bicycle_parking"", ""bicycle_parking"": ""stands"", ""capacity"": ""4""}"
329,,CVS Pharmacy,38.8945714,-77.0765615,,,,,,chemist,,,,,,,"{""brand"": ""CVS Pharmacy"", ""brand:website"": ""https://www.cvs.com/"", ""brand:wikidata"": ""Q2078880"", ""name"": ""CVS Pharmacy"", ""shop"": ""chemist"", ""short_name"": ""CVS""}"
330,,Arlington County Fire Station 10,38.8947057,-77.0758618,fire_station,,,,,,,,,Wilson Boulevard,1535,Arlington,"{""addr:city"": ""Arlington"", ""addr:housenumber"": ""1535"", ""addr:postcode"": ""22209"", ""addr:state"": ""VA"", ""addr:street"": ""Wilson Boulevard"", ""amenity"": ""fire_station"", ""name"": ""Arlington County Fire Station 10"", ""official_name"": ""Arlington County Fire Station 10 - Rosslyn"", ""operator"": ""Arlington County Fire Department"", ""operator:wikidata"": ""Q4792309"", ""phone"": ""+1-703-228-0110"", ""website"": ""https://www.arlingtonva.us/Government/Departments/Fire/Locations/Fire-Station-10-Rosslyn""}"
331,,Craig Van Lines Inc,38.8938792,-77.0715195,,,,,,,,moving_company,,North Fort Myer Drive,1655,Arlington,"{""addr:city"": ""Arlington"", ""addr:housenumber"": ""1655"", ""addr:postcode"": ""22209"", ""addr:state"": ""VA"", ""addr:street"": ""North Fort Myer Drive"", ""addr:unit"": ""700"", ""contact:facebook"": ""craigvanlines"", ""contact:phone"": ""+1-703-273-8852"", ""contact:twitter"": ""craigvanlines"", ""contact:website"": ""http://craigvanlines.com"", ""contact:youtube"": ""https://www.youtube.com/channel/UCNPegOGVGQMpiuKCWxIlTUw"", ""description"": ""Long Distance Moves to and from Arlington."", ""language:en"": ""yes"", ""language:es"": ""yes"", ""name"": ""Craig Van Lines Inc"", ""office"": ""moving_company"", ""opening_hours"": ""Mo-Su 08:00 - 18:00"", ""payment:american_express"": ""yes"", ""payment:cheque"": ""yes"", ""payment:discover_card"": ""yes"", ""payment:financing"": ""yes"", ""payment:invoice"": ""yes"", ""payment:mastercard"": ""yes"", ""payment:visa"": ""yes""}"
332,,Gold's Gym,38.8962536,-77.0732631,,,,,,,fitness_centre,,,North Moore Street,1700,Arlington,"{""addr:city"": ""Arlington"", ""addr:country"": ""US"", ""addr:housenumber"": ""1700"", ""addr:postcode"": ""22209"", ""addr:state"": ""VA"", ""addr:street"": ""North Moore Street"", ""brand"": ""Gold's Gym"", ""brand:wikidata"": ""Q1536234"", ""contact:email"": ""Contact.Rosslyn@goldsgymdcmetro.com"", ""contact:facebook"": ""https://www.facebook.com/goldsgymrosslyn"", ""leisure"": ""fitness_centre"", ""level"": ""0"", ""name"": ""Gold's Gym"", ""opening_hours"": ""Mo-Th 05:00-23:00; Fr 05:00-22:00; Sa-Su 07:00-19:00"", ""phone"": ""+1 703-528-4653"", ""website"": ""https://www.goldsgym.com/rosslynva/""}"
333,,,38.8960351,-77.0732015,loading_dock,,,,,,,,,,,,"{""amenity"": ""loading_dock"", ""door"": ""overhead"", ""entrance"": ""service"", ""level"": ""0"", ""manufacturer"": ""Overhead Door"", ""manufacturer:wikidata"": ""Q113461816""}"
334,,,38.8958684,-77.0732426,parking_entrance,,,,,,,,,,,,"{""access"": ""yes"", ""amenity"": ""parking_entrance"", ""level"": ""0"", ""level:ref"": ""C"", ""maxheight"": ""6'5\"""", ""parking"": ""multi-storey""}"
335,,,38.8954326,-77.0733478,parking_entrance,,,,,,,,,,,,"{""access"": ""yes"", ""amenity"": ""parking_entrance"", ""level"": ""1"", ""level:ref"": ""B"", ""parking"": ""multi-storey""}"
336,,,38.8951153,-77.0734244,parking_entrance,,,,,,,,,,,,"{""access"": ""private"", ""amenity"": ""parking_entrance"", ""level"": ""2"", ""level:ref"": ""A"", ""parking"": ""multi-storey""}"
337,,Watergate Investigation,38.8951931,-77.0733627,,,,,,,,,,,,,"{""direction"": ""15;195"", ""historic"": ""memorial"", ""material"": ""metal"", ""memorial"": ""plaque"", ""name"": ""Watergate Investigation"", ""operator"": ""Arlington County"", ""operator:wikidata"": ""Q112620617"", ""support"": ""pole"", ""wikimedia_commons"": ""File:Watergate Historical Marker.png""}"
338,,,38.8951184,-77.0735658,,,,,,,picnic_table,,,,,,"{""leisure"": ""picnic_table""}"
339,,,38.8951549,-77.0734558,,,,,,,picnic_table,,,,,,"{""leisure"": ""picnic_table""}"
340,,,38.895097,-77.0734679,,,,,,,picnic_table,,,,,,"{""leisure"": ""picnic_table""}"
341,,Rosslyn Metro / Wilson Blvd & N Moore St,38.8961444,-77.0714365,bicycle_rental,,,,,,,,,,,,"{""amenity"": ""bicycle_rental"", ""bicycle_rental"": ""docking_station"", ""brand"": ""Capital Bikeshare"", ""brand:wikidata"": ""Q1034635"", ""capacity"": ""21"", ""fee"": ""yes"", ""name"": ""Rosslyn Metro / Wilson Blvd & N Moore St"", ""network"": ""Capital Bikeshare"", ""network:wikidata"": ""Q1034635"", ""opening_hours"": ""24/7"", ""operator"": ""Lyft"", ""operator:type"": ""private"", ""operator:wikidata"": ""Q17077936"", ""website"": ""https://www.capitalbikeshare.com/""}"
342,,,38.8943094,-77.0785868,,,,,,,,,,Wilson Boulevard,1711,Arlington,"{""addr:city"": ""Arlington"", ""addr:housenumber"": ""1711"", ""addr:postcode"": ""22209"", ""addr:street"": ""Wilson Boulevard""}"
343,,Thai Select,38.8942916,-77.0786391,restaurant,,,,,,,,,Wilson Boulevard,1713,Arlington,"{""addr:city"": ""Arlington"", ""addr:housenumber"": ""1713"", ""addr:postcode"": ""22209"", ""addr:state"": ""VA"", ""addr:street"": ""Wilson Boulevard"", ""amenity"": ""restaurant"", ""cuisine"": ""thai"", ""name"": ""Thai Select"", ""opening_hours"": ""Mo-Su 11:00-22:00"", ""phone"": ""+1 703-565-2661"", ""website"": ""https://www.thai-selectrestaurant.com/""}"
344,,Capital Doner,38.8941027,-77.0791018,restaurant,,,,,,,,,Wilson Boulevard,1731,Arlington,"{""addr:city"": ""Arlington"", ""addr:housenumber"": ""1731"", ""addr:postcode"": ""22209"", ""addr:state"": ""VA"", ""addr:street"": ""Wilson Boulevard"", ""amenity"": ""restaurant"", ""check_date"": ""2025-06-03"", ""cuisine"": ""turkish"", ""name"": ""Capital Doner"", ""opening_hours"": ""Mo-Th 10:00-22:00; Sa 10:00-02:00; Su 10:00-23:00"", ""website"": ""https://capital-doner.shop""}"
345,,Gong Cha,38.8940369,-77.0777527,cafe,,,,,,,,,Wilson Boulevard,1650,Arlington,"{""addr:city"": ""Arlington"", ""addr:housenumber"": ""1650"", ""addr:postcode"": ""22209"", ""addr:state"": ""VA"", ""addr:street"": ""Wilson Boulevard"", ""addr:unit"": ""100A"", ""amenity"": ""cafe"", ""brand"": ""Gong Cha"", ""brand:wikidata"": ""Q5581670"", ""brand:zh"": ""貢茶"", ""check_date:opening_hours"": ""2024-08-21"", ""cuisine"": ""bubble_tea"", ""int_name"": ""Gong Cha"", ""name"": ""Gong Cha"", ""name:zh"": ""貢茶"", ""opening_hours"": ""Mo-Th 11:15-21:30; Fr 11:15-22:30; Sa 12:15-22:30; Su 12:15-21:30"", ""phone"": ""+1 571-257-7470"", ""takeaway"": ""yes"", ""website"": ""https://gongchadmv.com/""}"
346,,Toryumon Japanese House,38.894054,-77.077656,restaurant,,,,,,,,,Wilson Boulevard,1650,Arlington,"{""addr:city"": ""Arlington"", ""addr:housenumber"": ""1650"", ""addr:postcode"": ""22209-2508"", ""addr:state"": ""VA"", ""addr:street"": ""Wilson Boulevard"", ""amenity"": ""restaurant"", ""cuisine"": ""ramen"", ""name"": ""Toryumon Japanese House"", ""opening_hours"": ""Mo-Th 11:00-15:15, 17:00-22:00; Fr 11:00-15:15, 17:00-22:30; Sa 12:00-22:30; Su 12:00-21:30"", ""phone"": ""+1 571-357-1537"", ""website"": ""https://www.toryumonarlington.com/""}"
347,,Amazon Hub Locker,38.897259,-77.0790401,parcel_locker,,,,,,,,,,,,"{""amenity"": ""parcel_locker"", ""brand"": ""Amazon Hub"", ""brand:wikidata"": ""Q100274430"", ""name"": ""Amazon Hub Locker"", ""operator"": ""Amazon"", ""parcel_locker:type"": ""centre"", ""parcel_mail_in"": ""yes"", ""ref"": ""Neck""}"
348,,,38.8973361,-77.0642723,fountain,,,,,,,,,,,,"{""amenity"": ""fountain""}"
349,,,38.8971963,-77.063762,fountain,,,,,,,,,,,,"{""amenity"": ""fountain""}"
350,,,38.8953509,-77.0716525,parking_entrance,,,,,,,,,,,,"{""amenity"": ""parking_entrance"", ""barrier"": ""lift_gate""}"
351,,Hot Lola's,38.8949967,-77.0741,fast_food,,,,,,,,,Wilson Boulevard,1501,,"{""addr:housenumber"": ""1501"", ""addr:street"": ""Wilson Boulevard"", ""amenity"": ""fast_food"", ""check_date"": ""2023-06-13"", ""cuisine"": ""chicken"", ""drive_through"": ""no"", ""name"": ""Hot Lola's"", ""opening_hours"": ""Mo-Th 11:00-21:00; Fr-Sa 11:00-22:00; Su 11:00-20:00"", ""website"": ""https://www.hotlolas.com/""}"
352,,Wonder,38.8946239,-77.0762085,food_court,,,,,,,,,North Pierce Street,1771,Arlington,"{""addr:city"": ""Arlington"", ""addr:housenumber"": ""1771"", ""addr:postcode"": ""22209"", ""addr:state"": ""VA"", ""addr:street"": ""North Pierce Street"", ""amenity"": ""food_court"", ""delivery"": ""yes"", ""name"": ""Wonder"", ""opening_hours"": ""Su-Sa 10:30-23:30"", ""takeaway"": ""yes"", ""website"": ""https://www.wonder.com/food-delivery-locations/rosslyn""}"
353,,Supreme Barbershop,38.8930648,-77.0790481,,,,,,hairdresser,,,,,,,"{""check_date"": ""2023-01-20"", ""name"": ""Supreme Barbershop"", ""payment:cards"": ""no"", ""payment:credit_cards"": ""no"", ""payment:debit_cards"": ""no"", ""shop"": ""hairdresser""}"
354,,Anytime Fitness,38.8978045,-77.0705568,,,,,,,fitness_centre,,,North Lynn Street,1919,Arlington,"{""addr:city"": ""Arlington"", ""addr:country"": ""US"", ""addr:housenumber"": ""1919"", ""addr:postcode"": ""22209"", ""addr:state"": ""VA"", ""addr:street"": ""North Lynn Street"", ""addr:unit"": ""103"", ""branch"": ""Arlington (Rosslyn)"", ""brand"": ""Anytime Fitness"", ""brand:wikidata"": ""Q4778364"", ""check_date"": ""2023-02-14"", ""leisure"": ""fitness_centre"", ""name"": ""Anytime Fitness"", ""opening_hours"": ""24/7"", ""phone"": ""+1 571-339-1919"", ""ref"": ""4710"", ""website"": ""https://www.anytimefitness.com/gyms/4710/arlington-va-22209/""}"
355,,&pizza,38.8969711,-77.0710902,,,,,,,,,,North Lynn Street,1800,Arlington,"{""addr:city"": ""Arlington"", ""addr:country"": ""US"", ""addr:housenumber"": ""1800"", ""addr:postcode"": ""22209"", ""addr:state"": ""VA"", ""addr:street"": ""North Lynn Street"", ""disused:amenity"": ""fast_food"", ""name"": ""&pizza"", ""ref"": ""67""}"
356,,Navy Federal Credit Union,38.8973587,-77.0705749,bank,,,,,,,,,,,,"{""amenity"": ""bank"", ""brand"": ""Navy Federal Credit Union"", ""brand:wikidata"": ""Q6982632"", ""check_date"": ""2023-02-15"", ""name"": ""Navy Federal Credit Union""}"
357,,Happy Eatery,38.896968,-77.071285,restaurant,,,,,,,,,North Lynn Street,1800,Arlington,"{""addr:city"": ""Arlington"", ""addr:housenumber"": ""1800"", ""addr:postcode"": ""22209"", ""addr:state"": ""VA"", ""addr:street"": ""North Lynn Street"", ""addr:unit"": ""102"", ""amenity"": ""restaurant"", ""check_date"": ""2023-02-15"", ""cuisine"": ""asian"", ""name"": ""Happy Eatery"", ""opening_hours"": ""Mo-Su 11:30-20:00"", ""phone"": ""+1 571-800-1881"", ""website"": ""https://www.thehappyeatery.com/""}"
358,,Taco Rock,38.8951119,-77.074112,fast_food,,,,,,,,,Wilson Boulevard,1501,Arlington,"{""addr:city"": ""Arlington"", ""addr:housenumber"": ""1501"", ""addr:postcode"": ""22209"", ""addr:state"": ""VA"", ""addr:street"": ""Wilson Boulevard"", ""amenity"": ""fast_food"", ""check_date"": ""2023-06-13"", ""cuisine"": ""mexican"", ""name"": ""Taco Rock"", ""opening_hours"": ""Mo-Sa 11:00-22:00; Su 11:00-21:00"", ""phone"": ""+1 571-775-1800"", ""website"": ""https://www.thetacorock.com/""}"
359,,Assembly,38.895455,-77.071743,fast_food,,,,,,,,,North Moore Street,1700,Arlington,"{""addr:city"": ""Arlington"", ""addr:housenumber"": ""1700"", ""addr:postcode"": ""22209"", ""addr:state"": ""VA"", ""addr:street"": ""North Moore Street"", ""amenity"": ""fast_food"", ""check_date"": ""2023-02-15"", ""description"": ""Food hall with several small vendors"", ""drive_through"": ""no"", ""level"": ""1"", ""name"": ""Assembly"", ""opening_hours"": ""Mo-Sa 07:00-21:00; Su off"", ""phone"": ""+1 571-222-5425"", ""website"": ""https://assembly-va.com"", ""wheelchair"": ""yes""}"
360,,Verve,38.8959615,-77.0688741,,,,,,,fitness_centre,,,,,,"{""check_date"": ""2023-02-25"", ""leisure"": ""fitness_centre"", ""name"": ""Verve""}"
361,,Top of the Town,38.8898643,-77.0729901,events_venue,,,,,,,,,North 14th Street,1400,Arlington,"{""addr:city"": ""Arlington"", ""addr:country"": ""US"", ""addr:housenumber"": ""1400"", ""addr:postcode"": ""22209"", ""addr:state"": ""VA"", ""addr:street"": ""North 14th Street"", ""amenity"": ""events_venue"", ""name"": ""Top of the Town"", ""phone"": ""+1 703-387-8696"", ""website"": ""https://www.topofthetown.com""}"
362,,19th St N & Ft Myer Dr,38.8972262,-77.0721429,bicycle_rental,,,,,,,,,,,,"{""amenity"": ""bicycle_rental"", ""bicycle_rental"": ""docking_station"", ""brand"": ""Capital Bikeshare"", ""brand:wikidata"": ""Q1034635"", ""capacity"": ""15"", ""fee"": ""yes"", ""name"": ""19th St N & Ft Myer Dr"", ""network"": ""Capital Bikeshare"", ""network:wikidata"": ""Q1034635"", ""opening_hours"": ""24/7"", ""operator"": ""Lyft"", ""operator:type"": ""private"", ""operator:wikidata"": ""Q17077936"", ""website"": ""https://www.capitalbikeshare.com/""}"
363,,Watergate Steps Access North,38.8897137,-77.052782,,,,,,,,,,,,,"{""access"": ""permissive"", ""canoe"": ""permissive"", ""description"": ""Concrete stairs."", ""fee"": ""no"", ""name"": ""Watergate Steps Access North"", ""parking"": ""no"", ""steps"": ""yes"", ""surface"": ""concrete"", ""tidal"": ""yes"", ""waterway"": ""access_point"", ""wheelchair"": ""no""}"
364,,Sfoglina,38.894729,-77.070527,restaurant,,,,,,,,,Wilson Boulevard,1100,Arlington,"{""addr:city"": ""Arlington"", ""addr:housenumber"": ""1100"", ""addr:postcode"": ""22209-2247"", ""addr:state"": ""VA"", ""addr:street"": ""Wilson Boulevard"", ""amenity"": ""restaurant"", ""cuisine"": ""italian"", ""name"": ""Sfoglina"", ""opening_hours"": ""Mo-Th 11:30-21:30; Fr 11:30-22:00; Sa 17:00-22:00; Su off"", ""phone"": ""+1 703-893-8000"", ""website"": ""https://sfoglinapasta.com/rosslyn""}"
365,,Court Cleaners,38.8937055,-77.0764232,,,,,,dry_cleaning,,,,,,,"{""check_date"": ""2023-06-27"", ""name"": ""Court Cleaners"", ""shop"": ""dry_cleaning""}"
366,,Paint,38.8936354,-77.0747865,,,,,,beauty,,,,,,,"{""beauty"": ""nails"", ""check_date"": ""2023-06-27"", ""name"": ""Paint"", ""shop"": ""beauty""}"
367,,Nestlé USA,38.8965222,-77.0718816,,,,,,,,company,,North Moore Street,1812,Arlington,"{""addr:city"": ""Arlington"", ""addr:housenumber"": ""1812"", ""addr:postcode"": ""22209"", ""addr:state"": ""VA"", ""addr:street"": ""North Moore Street"", ""check_date"": ""2025-02-06"", ""name"": ""Nestlé USA"", ""office"": ""company""}"
368,,,38.8902502,-77.0787303,bicycle_parking,,,,,,,,,,,,"{""amenity"": ""bicycle_parking"", ""bicycle_parking"": ""stands"", ""capacity"": ""6"", ""covered"": ""no""}"
369,,Rosslyn Post Office,38.8943017,-77.0761676,post_office,,,,,,,,,Wilson Boulevard,1550,Arlington,"{""addr:city"": ""Arlington"", ""addr:housenumber"": ""1550"", ""addr:postcode"": ""22209"", ""addr:state"": ""VA"", ""addr:street"": ""Wilson Boulevard"", ""addr:unit"": ""100"", ""amenity"": ""post_office"", ""name"": ""Rosslyn Post Office"", ""opening_hours"": ""Mo-Fr 09:00-13:00,14:00-16:00"", ""operator"": ""United States Postal Service"", ""operator:short"": ""USPS"", ""operator:type"": ""public"", ""operator:website"": ""https://www.usps.com"", ""operator:wikidata"": ""Q668687"", ""operator:wikipedia"": ""en:United States Postal Service"", ""phone"": ""+1 703-294-4081"", ""ref"": ""1548314"", ""website"": ""https://tools.usps.com/locations/home.htm?location=1548314""}"
370,,,38.8942681,-77.072886,bicycle_parking,,,,,,,,,,,,"{""amenity"": ""bicycle_parking""}"
371,,One Medical,38.8950494,-77.07628,clinic,,,,,,,,,North Pierce Street,1771,,"{""addr:housenumber"": ""1771"", ""addr:postcode"": ""22209"", ""addr:street"": ""North Pierce Street"", ""amenity"": ""clinic"", ""healthcare"": ""clinic"", ""name"": ""One Medical"", ""opening_hours"": ""Mo-Fr 08:00-17:00"", ""operator"": ""1Life Healthcare"", ""operator:type"": ""private"", ""operator:wikidata"": ""Q85727717"", ""phone"": ""+1 888-663-6331"", ""website"": ""https://www.onemedical.com/locations/dc/arlington-rosslyn/""}"
372,,Upside On Moore,38.8952681,-77.0717345,food_court,,,,,,,,,North Moore Street,1700,,"{""addr:housenumber"": ""1700"", ""addr:street"": ""North Moore Street"", ""amenity"": ""food_court"", ""check_date"": ""2024-06-11"", ""name"": ""Upside On Moore""}"
373,,Sweetgreen,38.8963344,-77.0710177,fast_food,,,,,,,,,North Lynn Street,1800,,"{""addr:housenumber"": ""1800"", ""addr:street"": ""North Lynn Street"", ""air_conditioning"": ""yes"", ""amenity"": ""fast_food"", ""brand"": ""Sweetgreen"", ""brand:wikidata"": ""Q18636413"", ""cuisine"": ""salad"", ""name"": ""Sweetgreen"", ""opening_hours"": ""Mo-Su 10:30-22:00"", ""phone"": ""+1 703 372 9009"", ""takeaway"": ""yes"", ""website"": ""https://order.sweetgreen.com/rosslyn/menu"", ""website:menu"": ""https://order.sweetgreen.com/rosslyn/menu""}"
374,,N Kent St at 19th St N,38.8964078,-77.0694023,,,,platform,,,,,,,,,"{""bus"": ""yes"", ""highway"": ""bus_stop"", ""name"": ""N Kent St at 19th St N"", ""public_transport"": ""platform"", ""ref:wmata"": ""6666661"", ""website"": ""https://www.arlingtontransit.com/realtime/all/6666661""}"
375,,,38.8960833,-77.0718991,,,subway_entrance,,,,,,,,,,"{""railway"": ""subway_entrance""}"
376,,,38.8958701,-77.0719479,,,subway_entrance,,,,,,,,,,"{""railway"": ""subway_entrance""}"
377,,Open Kitchen,38.8937223,-77.0725392,restaurant,,,,,,,,,17th Street North,1300,Arlington,"{""addr:city"": ""Arlington"", ""addr:housenumber"": ""1300"", ""addr:postcode"": ""22209"", ""addr:state"": ""VA"", ""addr:street"": ""17th Street North"", ""amenity"": ""restaurant"", ""name"": ""Open Kitchen"", ""source"": ""esri/USA_NAD_Addresses"", ""website"": ""https://www.openkitchenrosslyn.com/""}"
378,,ARPANET,38.8944133,-77.0737092,,,,,,,,,,,,,"{""historic"": ""memorial"", ""material"": ""metal"", ""memorial"": ""plaque"", ""name"": ""ARPANET""}"
379,,Seoul Spice,38.8958261,-77.0705579,fast_food,,,,,,,,,North Lynn Street,1735,Arlington,"{""addr:city"": ""Arlington"", ""addr:housenumber"": ""1735"", ""addr:postcode"": ""22209"", ""addr:state"": ""VA"", ""addr:street"": ""North Lynn Street"", ""addr:unit"": ""106"", ""amenity"": ""fast_food"", ""cuisine"": ""korean"", ""name"": ""Seoul Spice""}"
380,,,38.9007499,-77.049059,,,switch,,,,,,,,,,"{""railway"": ""switch""}"
381,,,38.9007171,-77.0484515,,,switch,,,,,,,,,,"{""railway"": ""switch""}"
382,,,38.9007172,-77.0490586,,,switch,,,,,,,,,,"{""railway"": ""switch""}"
383,,,38.9007493,-77.0484538,,,switch,,,,,,,,,,"{""railway"": ""switch""}"
384,,,38.8871726,-77.0946062,,,switch,,,,,,,,,,"{""railway"": ""switch""}"
385,,,38.8873909,-77.0940655,,,switch,,,,,,,,,,"{""railway"": ""switch""}"
386,,,38.8871411,-77.0945796,,,switch,,,,,,,,,,"{""railway"": ""switch""}"
387,,,38.8874211,-77.0940905,,,switch,,,,,,,,,,"{""railway"": ""switch""}"
